year,state_po,county,latitude,longitude
2016,AL,Autauga,32.5165255,-86.6319403
2016,AL,Baldwin,30.5677527,-87.7324392
2016,AL,Barbour,31.8589311,-85.4032078
2016,AL,Bibb,32.971078999999996,-87.1227088
2016,AL,Blount,33.9510169,-86.5702002
2016,AL,Bullock,32.09929,-85.7091657
2016,AL,Butler,31.7340713,-86.67547929999999
2016,AL,Calhoun,33.7514505,-85.8315666
2016,AL,Chambers,32.8901658,-85.3866953
2016,AL,Cherokee,34.1142554,-85.60045140000001
2016,AL,Chilton,32.8522565,-86.7032845
2016,AL,Choctaw,31.990809499999997,-88.28213259999998
2016,AL,Clarke,31.659134,-87.8192486
2016,AL,Clay,33.2423393,-85.81965100000001
2016,AL,Cleburne,33.6506958,-85.5017359
2016,AL,Coffee,31.362961900000002,-85.98706690000002
2016,AL,Colbert,34.6473396,-87.79217690000002
2016,AL,Conecuh,31.396678299999998,-86.9437104
2016,AL,Coosa,32.9181762,-86.2327497
2016,AL,Covington,31.196548999999997,-86.45972359999999
2016,AL,Crenshaw,31.680936199999998,-86.32440090000001
2016,AL,Cullman,34.1335332,-86.8779268
2016,AL,Dale,31.394096899999997,-85.623763
2016,AL,Dallas,32.311796799999996,-87.1046643
2016,AL,DeKalb,34.4524349,-85.76621180000001
2016,AL,Elmore,32.5801231,-86.12519499999999
2016,AL,Escambia,31.1168422,-87.1070947
2016,AL,Etowah,34.0371404,-86.022147
2016,AL,Fayette,33.73034929999999,-87.7419088
2016,AL,Franklin,34.440962,-87.8339064
2016,AL,Geneva,31.0862933,-85.803014
2016,AL,Greene,32.8620514,-87.9915392
2016,AL,Hale,32.7412417,-87.6561668
2016,AL,Henry,31.483804100000004,-85.2447377
2016,AL,Houston,31.1355603,-85.26545920000001
2016,AL,Jackson,34.7692447,-85.9867941
2016,AL,Jefferson,33.5228184,-86.91645129999999
2016,AL,Lamar,33.7490016,-88.1003689
2016,AL,Lauderdale,34.9049555,-87.6747398
2016,AL,Lawrence,34.477636700000005,-87.30173309999999
2016,AL,Lee,32.5814796,-85.3077038
2016,AL,Limestone,34.8342463,-86.9901321
2016,AL,Lowndes,32.1088066,-86.64025409999999
2016,AL,Macon,32.366606,-85.66603070000001
2016,AL,Madison,34.7736807,-86.5675095
2016,AL,Marengo,32.201002,-87.7569365
2016,AL,Marion,34.112813200000005,-87.8544031
2016,AL,Marshall,34.3396046,-86.33018009999999
2016,AL,Mobile,30.6943566,-88.04305409999999
2016,AL,Monroe,31.5593935,-87.37810040000001
2016,AL,Montgomery,32.3669656,-86.3006485
2016,AL,Morgan,34.4296848,-86.8529584
2016,AL,Perry,32.6421387,-87.28766390000001
2016,AL,Pickens,33.294842100000004,-88.1244034
2016,AL,Pike,16.955605,43.341156
2016,AL,Randolph,33.2651763,-85.46939609999998
2016,AL,Russell,32.2698458,-85.1959487
2016,AL,St. Clair,33.708640700000004,-86.3364
2016,AL,Shelby,33.2503347,-86.66397459999999
2016,AL,Sumter,32.5234698,-88.18379859999999
2016,AL,Talladega,33.4359416,-86.1058048
2016,AL,Tallapoosa,32.8595687,-85.80237740000001
2016,AL,Tuscaloosa,33.2095614,-87.5675258
2016,AL,Walker,33.780449100000006,-87.2767248
2016,AL,Washington,31.3991238,-88.2019828
2016,AL,Wilcox,31.9523021,-87.3005169
2016,AL,Winston,34.132886299999996,-87.361354
2016,AK,District 1,8.780787199999999,117.8424388
2016,AK,District 2,8.7764097,117.83296809999999
2016,AK,District 3,32.30022475,36.3244896296458
2016,AK,District 4,32.2965526,36.3228303421403
2016,AK,District 5,25.049086399999997,55.1918014345557
2016,AK,District 6,32.2952192,36.3352974659219
2016,AK,District 7,25.05578275,55.1922229561889
2016,AK,District 8,-6.229537400000001,106.80679207127199
2016,AK,District 9,32.286493199999995,36.3313485745774
2016,AK,District 10,32.2893834,36.326430089371
2016,AK,District 11,32.29113775,36.3203748684399
2016,AK,District 12,32.293046999999994,36.3150972935628
2016,AK,District 13,30.33773645,31.7124414465208
2016,AK,District 14,30.32551295,31.6994547003551
2016,AK,District 15,30.344988800000003,31.7462672252496
2016,AK,District 16,30.346202299999998,31.7645149750729
2016,AK,District 17,30.070390399999997,30.955303154306602
2016,AK,District 18,35.6612525,51.296966499999996
2016,AK,District 19,35.634001299999994,51.3680909
2016,AK,District 20,35.603420799999995,51.436183899999996
2016,AK,District 21,35.7193151,51.1919684
2016,AK,District 22,35.7521532,51.2281088
2016,AK,District 23,12.6005375,-8.01504899858036
2016,AK,District 24,12.6005375,-8.01504899858036
2016,AK,District 25,12.6005375,-8.01504899858036
2016,AK,District 26,12.6005375,-8.01504899858036
2016,AK,District 27,12.6005375,-8.01504899858036
2016,AK,District 28,12.6005375,-8.01504899858036
2016,AK,District 29,12.6005375,-8.01504899858036
2016,AK,District 30,45.29365365,-73.88918684527691
2016,AK,District 31,12.6005375,-8.01504899858036
2016,AK,District 32,12.6005375,-8.01504899858036
2016,AK,District 33,12.6005375,-8.01504899858036
2016,AK,District 34,12.6005375,-8.01504899858036
2016,AK,District 35,12.6005375,-8.01504899858036
2016,AK,District 36,12.6005375,-8.01504899858036
2016,AK,District 37,12.6005375,-8.01504899858036
2016,AK,District 38,12.6005375,-8.01504899858036
2016,AK,District 39,12.6005375,-8.01504899858036
2016,AK,District 40,12.6005375,-8.01504899858036
2016,AZ,Apache,35.214632,-109.4786676
2016,AZ,Cochise,31.8514532,-109.8181858
2016,AZ,Coconino,35.936325200000006,-111.6948197
2016,AZ,Gila,33.7517565,-110.8052705
2016,AZ,Graham,32.8397096,-109.86857520000001
2016,AZ,Greenlee,33.2312681,-109.27512970000001
2016,AZ,La Paz,33.7923828,-114.0184443
2016,AZ,Maricopa,33.34883,-112.49123
2016,AZ,Mohave,35.721803799999996,-113.8271174
2016,AZ,Navajo,35.1819775,-110.3549451
2016,AZ,Pima,32.1112624,-111.6546163
2016,AZ,Pinal,32.8085851,-111.4426212
2016,AZ,Santa Cruz,31.509457899999997,-110.8476281
2016,AZ,Yavapai,34.5668857,-112.5515965
2016,AZ,Yuma,32.6926588,-114.6276157
2016,AR,Arkansas,34.290245399999996,-91.3598511
2016,AR,Ashley,33.1742582,-91.7295595
2016,AR,Baxter,36.2820691,-92.3445222
2016,AR,Benton,36.3456186,-94.26704040000001
2016,AR,Boone,10000.0,10000.0
2016,AR,Bradley,33.4494147,-92.16875999999999
2016,AR,Calhoun,10000.0,10000.0
2016,AR,Carroll,36.3386737,-93.5093048
2016,AR,Chicot,33.2536665,-91.30269859999999
2016,AR,Clark,34.054196600000004,-93.198963
2016,AR,Clay,36.3609902,-90.4087659
2016,AR,Cleburne,35.5298937,-92.0312818
2016,AR,Cleveland,33.8847138,-92.17245059999999
2016,AR,Columbia,33.1938586,-93.23443370000001
2016,AR,Conway,35.0886963,-92.44210109999999
2016,AR,Craighead,35.834841299999994,-90.6441144
2016,AR,Crawford,35.5803044,-94.2684622
2016,AR,Crittenden,35.2505701,-90.31922990000001
2016,AR,Cross,35.300121600000004,-90.7750181
2016,AR,Dallas,33.9630776,-92.6853662
2016,AR,Desha,33.7740219,-91.3110517
2016,AR,Drew,33.5716907,-91.71609690000001
2016,AR,Faulkner,35.147085100000005,-92.3219053
2016,AR,Franklin,35.5110075,-93.88648470000001
2016,AR,Fulton,36.378398100000005,-91.8110982
2016,AR,Garland,34.548894399999995,-93.18385390000002
2016,AR,Grant,10000.0,10000.0
2016,AR,Greene,36.091803000000006,-90.5778883
2016,AR,Hempstead,33.69493189999999,-93.6929825
2016,AR,Hot Spring,34.295635100000005,-92.90057420000001
2016,AR,Howard,34.0744088,-93.97457759999999
2016,AR,Independence,35.718344,-91.55326
2016,AR,Izard,36.0832532,-91.8894787
2016,AR,Jackson,10000.0,10000.0
2016,AR,Jefferson,39.2954767,-77.8782587
2016,AR,Johnson,35.56006970000001,-93.4550108
2016,AR,Lafayette,33.1821484,-93.5972459
2016,AR,Lawrence,36.00782120000001,-91.1655476
2016,AR,Lee,34.7836833,-90.77596190000001
2016,AR,Lincoln,10000.0,10000.0
2016,AR,Little River,33.69687929999999,-94.20653979999999
2016,AR,Logan,37.80246029999999,-81.9284776
2016,AR,Lonoke,34.741440399999995,-91.862792
2016,AR,Madison,35.9728095,-93.75890240000001
2016,AR,Marion,10000.0,10000.0
2016,AR,Miller,33.2766729,-93.9214795
2016,AR,Mississippi,35.7547987,-90.0875933
2016,AR,Monroe,34.6778982,-91.2289578
2016,AR,Montgomery,34.5218805,-93.65082340000001
2016,AR,Nevada,33.6413476,-93.3055491
2016,AR,Newton,35.918468,-93.2273047
2016,AR,Ouachita,33.5680929,-92.9355875
2016,AR,Perry,34.9616474,-92.87575140000001
2016,AR,Phillips,34.4427373,-90.8331287
2016,AR,Pike,34.1435885,-93.64289659999999
2016,AR,Poinsett,35.573018299999994,-90.6717121
2016,AR,Polk,34.4995799,-94.23971159999999
2016,AR,Pope,35.453866999999995,-93.0498623
2016,AR,Prairie,34.8105247,-91.5751148
2016,AR,Pulaski,34.755016600000005,-92.3003472
2016,AR,Randolph,10000.0,10000.0
2016,AR,St. Francis,35.0153956,-90.72631940000001
2016,AR,Saline,34.6021249,-92.6542869
2016,AR,Scott,34.8469384,-94.0431714
2016,AR,Searcy,35.250640600000004,-91.7362488
2016,AR,Sebastian,35.1770785,-94.2654285
2016,AR,Sevier,33.98678579999999,-94.243888
2016,AR,Sharp,36.1344424,-91.4930274
2016,AR,Stone,35.8317159,-92.1747633
2016,AR,Union,33.16373660000001,-92.6171029
2016,AR,Van Buren,35.44441415,-94.35091426896909
2016,AR,Washington,35.9672625,-94.2280656
2016,AR,White,35.246304200000004,-91.71696870000001
2016,AR,Woodruff,35.171457399999994,-91.22298509999999
2016,AR,Yell,34.99060720000001,-93.4283105
2016,CA,Alameda,37.7652076,-122.2416355
2016,CA,Alpine,34.5391583,-118.1064611
2016,CA,Amador,38.449089,-120.59110179999999
2016,CA,Butte,39.6519275,-121.58584440000001
2016,CA,Calaveras,38.255818100000006,-120.49814920000001
2016,CA,Colusa,39.1465578,-122.22095630000001
2016,CA,Contra Costa,37.9034806,-121.9175345
2016,CA,Del Norte,41.7261767,-123.91328
2016,CA,El Dorado,38.75741370000001,-120.5276129
2016,CA,Fresno,36.7295295,-119.708861260756
2016,CA,Glenn,39.5912766,-122.3778662
2016,CA,Humboldt,40.5997415,-123.89977340000002
2016,CA,Imperial,33.0305487,-115.3595666
2016,CA,Inyo,36.5595325,-117.4074712
2016,CA,Kern,35.3145701,-118.7538222
2016,CA,Kings,36.0784807,-119.7956342
2016,CA,Lake,39.050541100000004,-122.77765559999999
2016,CA,Lassen,40.7685579,-120.730998
2016,CA,Los Angeles,34.0536909,-118.2427666
2016,CA,Madera,37.171626399999994,-119.77379909999999
2016,CA,Marin,38.0409144,-122.61996380000001
2016,CA,Mariposa,37.570147999999996,-119.90365919999999
2016,CA,Mendocino,39.3116185,-123.82614349757601
2016,CA,Merced,37.3029568,-120.48432690000001
2016,CA,Modoc,41.5450487,-120.74359979999998
2016,CA,Mono,37.9533927,-118.9398758
2016,CA,Monterey,36.223107899999995,-121.38774280000001
2016,CA,Napa,38.2971367,-122.28552930000001
2016,CA,Nevada,45.0926585,6.07101971587944
2016,CA,Orange,33.787256799999994,-117.8503088
2016,CA,Placer,39.1012064,-120.7650606
2016,CA,Plumas,39.943098799999994,-120.8059521
2016,CA,Riverside,33.953354600000004,-117.39616229999999
2016,CA,Sacramento,38.5815719,-121.49439960000001
2016,CA,San Benito,36.6248089,-121.1177379
2016,CA,San Bernardino,34.1083449,-117.2897652
2016,CA,San Diego,32.7174209,-117.16277140000001
2016,CA,San Francisco,37.779280799999995,-122.4192363
2016,CA,San Joaquin,37.9372901,-121.2773719
2016,CA,San Luis Obispo,35.2827525,-120.6596156
2016,CA,San Mateo,37.496904,-122.33305729999998
2016,CA,Santa Barbara,34.4221319,-119.7026673
2016,CA,Santa Clara,37.35411320000001,-121.95517439999999
2016,CA,Santa Cruz,36.9749416,-122.0285259
2016,CA,Shasta,40.7965121,-121.99791940000001
2016,CA,Sierra,39.5849065,-120.5305731
2016,CA,Siskiyou,41.5007223,-122.544354147521
2016,CA,Solano,38.2218938,-121.9163555
2016,CA,Sonoma,38.511080299999996,-122.8473388
2016,CA,Stanislaus,37.550087100000006,-121.0501425
2016,CA,Sutter,38.9509675,-121.697088
2016,CA,Tehama,40.125133399999996,-122.20155290000001
2016,CA,Trinity,40.6053256,-123.171268
2016,CA,Tulare,36.2516475,-118.85258300000001
2016,CA,Tuolumne,38.056944,-119.9919351
2016,CA,Ventura,34.343649,-119.29517101050399
2016,CA,Yolo,38.718454200000004,-121.9059001
2016,CA,Yuba,39.283975500000004,-121.3556818
2016,CO,Adams,39.8714085,-104.27013740000001
2016,CO,Alamosa,37.469877000000004,-105.86960090000001
2016,CO,Arapahoe,39.6416781,-104.36285670000001
2016,CO,Archuleta,37.199599299999996,-107.08424790000001
2016,CO,Baca,37.3147687,-102.5770885
2016,CO,Bent,37.9421152,-103.0964287
2016,CO,Boulder,40.0149856,-105.2705456
2016,CO,Broomfield,39.937989200000004,-105.0587294
2016,CO,Chaffee,38.7413025,-106.1825012
2016,CO,Cheyenne,38.830723299999995,-102.6177692
2016,CO,Clear Creek,39.675459100000005,-105.64353490000002
2016,CO,Conejos,37.1851939,-106.1655431
2016,CO,Costilla,37.2367948,-105.4182008
2016,CO,Crowley,38.3394806,-103.8263042
2016,CO,Custer,38.10729620000001,-105.3543375
2016,CO,Delta,38.74361210000001,-108.0729172
2016,CO,Denver,39.7348381,-104.9653271
2016,CO,Dolores,37.7524811,-108.4596087
2016,CO,Douglas,39.342043700000005,-104.94689450000001
2016,CO,Eagle,39.6161124,-106.71728440000001
2016,CO,Elbert,39.3138822,-104.0868973
2016,CO,El Paso,38.8287435,-104.5253456
2016,CO,Fremont,38.4692006,-105.4328622
2016,CO,Garfield,39.5462048,-107.87761440000001
2016,CO,Gilpin,39.8586654,-105.5025219
2016,CO,Grand,40.0990074,-106.13669660000001
2016,CO,Gunnison,38.5458246,-106.9253207
2016,CO,Hinsdale,37.813681,-107.3304179
2016,CO,Huerfano,37.701398299999994,-105.0218531
2016,CO,Jackson,40.6531945,-106.3447246
2016,CO,Jefferson,39.5699803,-105.2561919
2016,CO,Kiowa,38.4411214,-102.76284759999999
2016,CO,Kit Carson,39.3080613,-102.62075
2016,CO,Lake,39.2056525,-106.342801
2016,CO,La Plata,37.2889732,-107.85390290000001
2016,CO,Larimer,40.6810174,-105.47269070000002
2016,CO,Las Animas,37.309662599999996,-104.05914270000001
2016,CO,Lincoln,38.920829600000005,-103.4885462
2016,CO,Logan,40.7250975,-103.12213790000001
2016,CO,Mesa,39.0589084,-108.565996
2016,CO,Mineral,37.6584133,-106.9311267
2016,CO,Moffat,40.6083135,-108.25234499999999
2016,CO,Montezuma,37.347654600000006,-108.62608490000001
2016,CO,Montrose,38.4781927,-107.8762771
2016,CO,Morgan,40.240762100000005,-103.8225695
2016,CO,Otero,37.8872079,-103.74152679999999
2016,CO,Ouray,38.146044,-107.7414887
2016,CO,Park,39.1089299,-105.75616389999999
2016,CO,Phillips,40.5888329,-102.3701723
2016,CO,Pitkin,39.2037774,-106.86953319999999
2016,CO,Prowers,37.9455797,-102.41307929999999
2016,CO,Pueblo,10000.0,10000.0
2016,CO,Rio Blanco,39.9847294,-108.18077790000001
2016,CO,Rio Grande,37.5668223,-106.3832155
2016,CO,Routt,40.451437299999995,-106.97240719999999
2016,CO,Saguache,38.0945348,-106.3563372
2016,CO,San Juan,37.7633081,-107.64955079999999
2016,CO,San Miguel,37.96345975,-108.411848160853
2016,CO,Sedgwick,40.8698595,-102.3777262
2016,CO,Summit,39.6070951,-106.0636654
2016,CO,Teller,38.889575,-105.17973070000001
2016,CO,Washington,39.9017011,-103.1521676
2016,CO,Weld,40.5632344,-104.48352870000001
2016,CO,Yuma,40.0163487,-102.458253
2016,CT,Fairfield,41.1394041,-73.25615895134291
2016,CT,Hartford,41.764582,-72.6908547
2016,CT,Litchfield,41.767249,-73.25430490000001
2016,CT,Middlesex,41.451081099999996,-72.5528113
2016,CT,New Haven,41.3082138,-72.92505179999999
2016,CT,New London,41.3556187,-72.0997804
2016,CT,Tolland,41.818446,-72.3562252
2016,CT,Windham,41.8208345,-72.00512009999998
2016,DE,Kent,39.1156908,-75.4841394
2016,DE,New Castle,39.66205720000001,-75.5663132
2016,DE,Sussex,38.6908097,-75.36914209999999
2016,DC,District of Columbia,38.8950092,-77.0365625
2016,FL,Alachua,29.675568,-82.36401090000001
2016,FL,Baker,30.314345899999996,-82.2847163
2016,FL,Bay,30.248169300000004,-85.6593633
2016,FL,Bradford,29.9715087,-82.1608653
2016,FL,Brevard,28.2446658,-80.728624
2016,FL,Broward,26.1598074,-80.4623642
2016,FL,Calhoun,30.3853734,-85.2223516
2016,FL,Charlotte,26.901326899999997,-81.91567990000001
2016,FL,Citrus,28.851285100000002,-82.51412090000001
2016,FL,Clay,29.9766524,-81.8470596
2016,FL,Collier,26.087964000000003,-81.3794941
2016,FL,Columbia,30.1935988,-82.6327488
2016,FL,Desoto,27.190253000000002,-81.82442320000001
2016,FL,Dixie,29.621400800000004,-83.17351
2016,FL,Duval,30.354007300000003,-81.66321090000001
2016,FL,Escambia,30.662588500000002,-87.3451089
2016,FL,Flagler,29.484441200000003,-81.2917415
2016,FL,Franklin,29.832314299999997,-84.8239118
2016,FL,Gadsden,30.5937346,-84.6389937
2016,FL,Gilchrist,29.7131619,-82.7975172
2016,FL,Glades,26.932812300000002,-81.1895983
2016,FL,Gulf,29.9665252,-85.21758890000001
2016,FL,Hamilton,30.5232289,-82.9763531
2016,FL,Hardee,27.485634899999997,-81.8196804
2016,FL,Hendry,26.597094,-81.1520667
2016,FL,Hernando,28.571015600000003,-82.46050679999999
2016,FL,Highlands,27.3513186,-81.36157170000001
2016,FL,Hillsborough,27.9184543,-82.3488057
2016,FL,Holmes,30.891867600000005,-85.81382070000001
2016,FL,Indian River,27.7041555,-80.58944220000001
2016,FL,Jackson,30.801386100000002,-85.2063186
2016,FL,Jefferson,30.394953100000002,-83.93265759999998
2016,FL,Lafayette,29.9978185,-83.2221527
2016,FL,Lake,28.7006859,-81.78994
2016,FL,Lee,26.599926500000002,-81.8823135
2016,FL,Leon,30.468306199999997,-84.2549068
2016,FL,Levy,29.3008632,-82.7824592
2016,FL,Liberty,30.250694300000003,-84.89559890000001
2016,FL,Madison,30.451435200000002,-83.45245240000001
2016,FL,Manatee,27.521393300000003,-82.38015659999999
2016,FL,Marion,29.218245399999997,-82.0626948
2016,FL,Martin,27.067371100000003,-80.3994412
2016,FL,Miami-Dade,25.6364246,-80.4989467
2016,FL,Monroe,25.0405135,-80.8337157
2016,FL,Nassau,30.662432899999995,-81.7707334
2016,FL,Okaloosa,30.6765961,-86.6037748
2016,FL,Okeechobee,27.3923408,-80.8873655
2016,FL,Orange,28.495156,-81.3111658
2016,FL,Osceola,28.0443842,-81.1437541
2016,FL,Palm Beach,26.627979800000002,-80.44941740000002
2016,FL,Pasco,28.299618300000002,-82.4522702
2016,FL,Pinellas,27.8778904,-82.7329309
2016,FL,Polk,27.9448537,-81.72687890000002
2016,FL,Putnam,29.626615500000003,-81.72305490000001
2016,FL,St. Johns,29.9032284,-81.4145468
2016,FL,St. Lucie,27.3900897,-80.457904
2016,FL,Santa Rosa,30.696450199999997,-87.00975240000001
2016,FL,Sarasota,27.3364347,-82.5306527
2016,FL,Seminole,28.722582899999995,-81.23536829999999
2016,FL,Sumter,28.6689748,-82.076402
2016,FL,Suwannee,30.210119199999998,-82.9873377
2016,FL,Taylor,30.0926733,-83.6377926
2016,FL,Union,30.044303999999997,-82.39544790000001
2016,FL,Volusia,29.0533409,-81.13107609999999
2016,FL,Wakulla,30.1480038,-84.3543512
2016,FL,Walton,30.6204939,-86.19126779999999
2016,FL,Washington,30.6009343,-85.6762025
2016,GA,Appling,31.7771435,-82.2996274
2016,GA,Atkinson,31.3030105,-82.88393620000001
2016,GA,Bacon,31.5555512,-82.4442559
2016,GA,Baker,31.3439196,-84.4555346
2016,GA,Baldwin,33.086939799999996,-83.26332159999998
2016,GA,Banks,34.3378598,-83.4970026
2016,GA,Barrow,33.9848611,-83.69964820000001
2016,GA,Bartow,34.2394683,-84.84069840000001
2016,GA,Ben Hill,31.7462726,-83.23558790000001
2016,GA,Berrien,31.2561376,-83.2443709
2016,GA,Bibb,32.8095879,-83.694562
2016,GA,Bleckley,32.430531099999996,-83.3311795
2016,GA,Brantley,31.1928547,-81.9943569
2016,GA,Brooks,30.8336559,-83.5958387
2016,GA,Bryan,32.003488899999994,-81.4241017
2016,GA,Bulloch,32.384633799999996,-81.74483199999999
2016,GA,Burke,33.0482247,-81.9575983
2016,GA,Butts,33.282508299999996,-83.9548161
2016,GA,Calhoun,31.531178399999998,-84.614328
2016,GA,Camden,30.9298212,-81.6225075
2016,GA,Candler,32.4146577,-82.0930776
2016,GA,Carroll,33.558800500000004,-85.0641272
2016,GA,Catoosa,34.891113700000005,-85.131315
2016,GA,Charlton,30.877538800000004,-82.11858470000001
2016,GA,Chatham,31.9668887,-81.0626008
2016,GA,Chattahoochee,32.3320278,-84.79397990000001
2016,GA,Chattooga,34.462093100000004,-85.3660518
2016,GA,Cherokee,34.239126500000005,-84.4720272
2016,GA,Clarke,33.9458693,-83.3557816
2016,GA,Clay,31.573818100000004,-84.9800814
2016,GA,Clayton,33.5204959,-84.3591713
2016,GA,Clinch,30.893878100000002,-82.6923467
2016,GA,Cobb,33.9373948,-84.57320059999999
2016,GA,Coffee,31.5301809,-82.8405691
2016,GA,Colquitt,31.1803601,-83.7696152
2016,GA,Columbia,33.5313102,-82.25639790000001
2016,GA,Cook,31.145511499999998,-83.4331569
2016,GA,Coweta,33.3500656,-84.75457340000001
2016,GA,Crawford,32.721267499999996,-83.9825337
2016,GA,Crisp,31.915226500000003,-83.77776999999999
2016,GA,Dade,34.8722084,-85.4998791
2016,GA,Dawson,34.407708500000005,-84.1356771
2016,GA,Decatur,33.7737582,-84.29606899999999
2016,GA,DeKalb,33.75756129999999,-84.21865079999999
2016,GA,Dodge,32.150651399999994,-83.1520134
2016,GA,Dooly,32.1542383,-83.82538170000001
2016,GA,Dougherty,31.5426984,-84.19608290000001
2016,GA,Douglas,33.6995565,-84.7622973
2016,GA,Early,31.3466656,-84.93508940000001
2016,GA,Echols,30.696802500000004,-82.9078762
2016,GA,Effingham,32.3419626,-81.338687
2016,GA,Elbert,34.119431799999994,-82.8408412
2016,GA,Emanuel,32.6078163,-82.2922815
2016,GA,Evans,32.1613648,-81.8980725
2016,GA,Fannin,34.886795500000005,-84.2715585
2016,GA,Fayette,33.3899269,-84.49537629999999
2016,GA,Floyd,34.2421984,-85.2229248
2016,GA,Forsyth,34.235309,-84.13356440000001
2016,GA,Franklin,34.36786420000001,-83.21565749999999
2016,GA,Fulton,34.0580391,-84.29612829999999
2016,GA,Gilmer,34.685978799999994,-84.452696
2016,GA,Glascock,33.2168832,-82.6112005
2016,GA,Glynn,31.2171726,-81.5012681
2016,GA,Gordon,34.5019651,-84.89863079999999
2016,GA,Grady,30.867067,-84.23229429999999
2016,GA,Greene,33.5492988,-83.1660939
2016,GA,Gwinnett,33.9566869,-84.02274670000001
2016,GA,Habersham,34.6270741,-83.5016755
2016,GA,Hall,34.2905901,-83.81940279999999
2016,GA,Hancock,32.859614,-83.71974200000001
2016,GA,Haralson,33.7812701,-85.2001291
2016,GA,Harris,32.7251788,-84.9104641
2016,GA,Hart,34.3410525,-82.9503277
2016,GA,Heard,33.2786225,-85.113782
2016,GA,Henry,33.4519942,-84.13677709999999
2016,GA,Houston,32.465975199999995,-83.631394
2016,GA,Irwin,31.573010800000002,-83.2624513
2016,GA,Jackson,34.1282559,-83.5753386
2016,GA,Jasper,33.3254635,-83.6868559
2016,GA,Jeff Davis,31.774687,-82.68007320000001
2016,GA,Jefferson,33.0380388,-82.436141
2016,GA,Jenkins,32.7793141,-81.9613566
2016,GA,Johnson,32.6938608,-82.63748709999999
2016,GA,Jones,31.6338288,-81.4801073
2016,GA,Lamar,33.0649401,-84.14459520000001
2016,GA,Lanier,31.029016,-83.0768357
2016,GA,Laurens,32.4239975,-82.9388938
2016,GA,Lee,31.7620158,-84.13462120000001
2016,GA,Liberty,31.803163199999997,-81.483441
2016,GA,Lincoln,33.787667299999995,-82.4508165
2016,GA,Long,31.7704898,-81.753725
2016,GA,Lowndes,30.8195619,-83.2628255
2016,GA,Lumpkin,34.5546076,-83.9926806
2016,GA,McDuffie,33.4631845,-82.4830204
2016,GA,McIntosh,31.4979689,-81.3921575
2016,GA,Macon,32.8406946,-83.6324022
2016,GA,Madison,33.595681400000004,-83.46794399999999
2016,GA,Marion,32.347326300000006,-84.5282597
2016,GA,Meriwether,33.0373582,-84.6717803
2016,GA,Miller,31.1591063,-84.737836
2016,GA,Mitchell,33.2198688,-82.7031896
2016,GA,Monroe,33.0142344,-83.9044159
2016,GA,Montgomery,32.0839135,-82.539273
2016,GA,Morgan,33.579319299999995,-83.5051522
2016,GA,Murray,34.785186100000004,-84.7352262
2016,GA,Muscogee,32.4840651,-84.8502167
2016,GA,Newton,33.5715512,-83.8446101
2016,GA,Oconee,33.829578999999995,-83.42759179999999
2016,GA,Oglethorpe,33.8702684,-83.1049381
2016,GA,Paulding,33.8908526,-84.85691609999999
2016,GA,Peach,32.5543462,-83.8350733
2016,GA,Pickens,34.4630619,-84.4682402
2016,GA,Pierce,31.3430068,-82.2352189
2016,GA,Pike,33.081484,-84.39694809999999
2016,GA,Polk,33.9981581,-85.1567475
2016,GA,Pulaski,32.2330518,-83.46744040000002
2016,GA,Putnam,33.323150399999996,-83.3414172
2016,GA,Quitman,31.8769847,-85.0154412
2016,GA,Rabun,34.8796123,-83.42513570000001
2016,GA,Randolph,31.7620266,-84.7468429
2016,GA,Richmond,-26.181666699999997,28.016111100000003
2016,GA,Rockdale,33.6430283,-84.0322064
2016,GA,Schley,32.2478949,-84.3175516
2016,GA,Screven,32.7623379,-81.6272037
2016,GA,Seminole,30.951849,-84.8789094
2016,GA,Spalding,33.2591296,-84.2770865
2016,GA,Stephens,34.551190000000005,-83.2976462
2016,GA,Stewart,32.0732743,-84.8483149
2016,GA,Sumter,32.048507199999996,-84.1862464
2016,GA,Talbot,32.6984691,-84.505404
2016,GA,Taliaferro,33.58203820000001,-82.90436609999999
2016,GA,Tattnall,32.0252793,-82.0580692
2016,GA,Taylor,32.556921,-84.23951540000002
2016,GA,Telfair,31.9182328,-82.9339377
2016,GA,Terrell,31.7615999,-84.4410234
2016,GA,Thomas,30.868625899999998,-83.9471866
2016,GA,Tift,31.752049,54.217422
2016,GA,Toombs,32.129683899999996,-82.3299928
2016,GA,Towns,34.8971655,-83.7182775
2016,GA,Treutlen,32.396097999999995,-82.5666186
2016,GA,Troup,33.0237625,-85.0254022
2016,GA,Turner,31.7031592,-83.62144079999999
2016,GA,Twiggs,32.6467914,-83.4351636
2016,GA,Union,34.8180274,-83.99039690000001
2016,GA,Upson,32.864106199999995,-84.2904968
2016,GA,Walker,34.7418605,-85.3209686
2016,GA,Walton,33.762884,-83.740416
2016,GA,Ware,31.1727229,-82.4829338
2016,GA,Warren,33.4120461,-82.694643
2016,GA,Washington,32.9619979,-82.7748026
2016,GA,Wayne,31.5675304,-81.9131554
2016,GA,Webster,32.050618,-84.5473105
2016,GA,Wheeler,32.112996,-82.7567324
2016,GA,White,34.6322605,-83.75960409999999
2016,GA,Whitfield,34.796928799999996,-84.9745026
2016,GA,Wilcox,31.960784000000004,-83.4379708
2016,GA,Wilkes,33.7898432,-82.7385978
2016,GA,Wilkinson,32.792499400000004,-83.1623561
2016,GA,Worth,31.524178999999997,-83.87128009999999
2016,HI,Hawaii,19.58955475,-155.448698303485
2016,HI,Honolulu,21.304547,-157.8556764
2016,HI,Kauai,22.05046655,-159.55876775017
2016,HI,Maui,20.8029568,-156.310683316022
2016,ID,Ada,43.4136539,-116.23674209999999
2016,ID,Adams,44.8677448,-116.45723989999999
2016,ID,Bannock,42.693618799999996,-112.2506044
2016,ID,Bear Lake,42.21721229999999,-111.31988079999999
2016,ID,Benewah,47.2276807,-116.7843354
2016,ID,Bingham,43.1881598,-112.35983540000001
2016,ID,Blaine,43.3336455,-113.8808311
2016,ID,Boise,43.61656,-116.20083500000001
2016,ID,Bonner,48.2663565,-116.5952716
2016,ID,Bonneville,43.399384399999995,-111.4752257
2016,ID,Boundary,48.784634600000004,-116.43395109999999
2016,ID,Butte,43.6989304,-113.2210324
2016,ID,Camas,43.4064019,-114.80701429999999
2016,ID,Canyon,43.6435692,-116.70171440000001
2016,ID,Caribou,42.780196000000004,-111.6052607
2016,ID,Cassia,42.22193060000001,-113.5777087
2016,ID,Clark,44.276199600000005,-112.361997
2016,ID,Clearwater,46.7108188,-115.658248
2016,ID,Custer,44.2339362,-114.2286662
2016,ID,Elmore,43.3073766,-115.5411027
2016,ID,Franklin,42.1093652,-111.8203389
2016,ID,Fremont,44.2309391,-111.4218314
2016,ID,Gem,44.0123019,-116.38466090000001
2016,ID,Gooding,43.0031041,-114.82869240000001
2016,ID,Idaho,45.768068400000004,-115.5160723
2016,ID,Jefferson,43.80102479999999,-112.34980220000001
2016,ID,Jerome,42.702265999999995,-114.28670430000001
2016,ID,Kootenai,48.3102038,-116.5135257
2016,ID,Latah,46.8171611,-116.69344099999999
2016,ID,Lemhi,44.932188599999996,-113.852998
2016,ID,Lewis,46.2651949,-116.4050453
2016,ID,Lincoln,43.0138672,-114.1650584
2016,ID,Madison,43.774080100000006,-111.63041509999998
2016,ID,Minidoka,42.844091999999996,-113.6059588
2016,ID,Nez Perce,46.3959861,-116.8072307
2016,ID,Oneida,42.162862700000005,-112.5703083
2016,ID,Owyhee,42.4677336,-116.1590085
2016,ID,Payette,44.0374651,-116.76511229999998
2016,ID,Power,42.676907799999995,-112.88697749999999
2016,ID,Shoshone,47.305486,-115.95831640000002
2016,ID,Teton,43.7647107,-111.2081469
2016,ID,Twin Falls,42.5704219,-114.46031709999998
2016,ID,Valley,44.7475094,-115.59788429999999
2016,ID,Washington,44.39868870000001,-116.74008590000001
2016,IL,Adams,39.978778600000005,-91.2110065
2016,IL,Alexander,37.180152899999996,-89.35028340000001
2016,IL,Bond,38.8630331,-89.4391416
2016,IL,Boone,42.321246,-88.82355109999999
2016,IL,Brown,39.9498214,-90.74856559999999
2016,IL,Bureau,41.4016294,-89.5341179
2016,IL,Calhoun,39.13975070000001,-90.6506113
2016,IL,Carroll,42.0647352,-89.9556785
2016,IL,Cass,39.9682127,-90.250722
2016,IL,Champaign,40.116420500000004,-88.2433829
2016,IL,Christian,39.5212598,-89.2829783
2016,IL,Clark,39.3260541,-87.78385259999999
2016,IL,Clay,38.734069399999996,-88.49106929999999
2016,IL,Clinton,38.5896187,-89.420064
2016,IL,Coles,39.5266741,-88.21849990000001
2016,IL,Cook,41.8197385,-87.756525
2016,IL,Crawford,39.013164399999994,-87.7291001
2016,IL,Cumberland,39.2744299,-88.2423795
2016,IL,DeKalb,41.9294736,-88.7503647
2016,IL,De Witt,40.1734773,-88.9003733
2016,IL,Douglas,39.7628415,-88.21705159999999
2016,IL,DuPage,41.8603735,-88.0906873
2016,IL,Edgar,39.6714952,-87.73403640000001
2016,IL,Edwards,38.410253999999995,-88.0584362
2016,IL,Effingham,39.120143299999995,-88.54348
2016,IL,Fayette,39.0001282,-89.04302109999999
2016,IL,Ford,50.6504947,13.742865700000001
2016,IL,Franklin,37.976540899999996,-88.9335327
2016,IL,Fulton,40.4714305,-90.1845556
2016,IL,Gallatin,37.750950700000004,-88.22645190000001
2016,IL,Greene,39.3573664,-90.3898985
2016,IL,Grundy,41.274736299999994,-88.41193609999999
2016,IL,Hamilton,38.0619569,-88.53011359999999
2016,IL,Hancock,40.3941712,-91.14580629999999
2016,IL,Hardin,37.5137015,-88.2675733
2016,IL,Henderson,40.8156124,-90.9104547
2016,IL,Henry,41.3418549,-90.1177442
2016,IL,Iroquois,40.7351265,-87.83092090000001
2016,IL,Jackson,37.7668943,-89.35638449999999
2016,IL,Jasper,39.00824229999999,-88.1552371
2016,IL,Jefferson,38.3010487,-88.9344303
2016,IL,Jersey,39.084846399999996,-90.3303344
2016,IL,Jo Daviess,42.3506664,-90.1743742
2016,IL,Johnson,37.450181799999996,-88.8844045
2016,IL,Kane,50.795833,14.044360999999999
2016,IL,Kankakee,41.1200325,-87.8611531
2016,IL,Kendall,41.5853584,-88.4319488
2016,IL,Knox,40.920889,-90.2202325
2016,IL,Lake,42.3327033,-87.9939552
2016,IL,LaSalle,41.352456,-89.03874247285921
2016,IL,Lawrence,38.9719384,-95.2359496
2016,IL,Lee,41.74590560000001,-89.2888533
2016,IL,Livingston,40.8682487,-88.5631125
2016,IL,Logan,40.1075089,-89.37685390000001
2016,IL,McDonough,40.4376858,-90.6780272
2016,IL,McHenry,42.3294391,-88.4605713
2016,IL,McLean,40.463178899999996,-88.8196613
2016,IL,Macon,39.845520799999996,-88.9602376
2016,IL,Macoupin,39.2420653,-89.925212
2016,IL,Madison,38.811063,-89.90171120000001
2016,IL,Marion,37.7306054,-88.9331256
2016,IL,Marshall,35.9089643,-92.6312746
2016,IL,Mason,40.2302271,-89.8660433
2016,IL,Massac,37.217741700000005,-88.7163312
2016,IL,Menard,40.0166667,-89.78580649999999
2016,IL,Mercer,41.2019729,-90.73987170000001
2016,IL,Monroe,38.272231299999994,-90.1792484
2016,IL,Montgomery,32.3669656,-86.3006485
2016,IL,Morgan,39.7062265,-90.190335
2016,IL,Moultrie,39.639144200000004,-88.6087498
2016,IL,Ogle,42.0397014,-89.31385990000001
2016,IL,Peoria,40.6938609,-89.5891008
2016,IL,Perry,38.0772859,-89.37604990000001
2016,IL,Piatt,39.967290999999996,-88.60723990000001
2016,IL,Pike,50.56957985,14.03237935
2016,IL,Pope,37.3933531,-88.59044250000001
2016,IL,Pulaski,37.2314232,-89.1183427
2016,IL,Putnam,41.2025915,-89.26764140000002
2016,IL,Randolph,38.0472916,-89.81079620000001
2016,IL,Richland,38.706045700000004,-88.09493520000001
2016,IL,Rock Island,41.5094771,-90.57874770000001
2016,IL,St. Clair,38.4616972,-89.9324347
2016,IL,Saline,37.750075,-88.53025840000001
2016,IL,Sangamon,39.762366799999995,-89.64549050000001
2016,IL,Schuyler,40.1370869,-90.5697373
2016,IL,Scott,39.6333408,-90.4753685
2016,IL,Shelby,39.3665064,-88.78862779999999
2016,IL,Stark,41.0712135,-89.80668309999999
2016,IL,Stephenson,42.3503474,-89.6735637
2016,IL,Tazewell,40.5126429,-89.5442084
2016,IL,Union,50.357040999999995,13.794575699999998
2016,IL,Vermilion,40.1749809,-87.73238570000001
2016,IL,Wabash,38.4615994,-87.8460903
2016,IL,Warren,40.844282799999995,-90.61684079999999
2016,IL,Washington,38.8950092,-77.0365625
2016,IL,Wayne,38.4251958,-88.4197678
2016,IL,White,38.063232899999996,-88.1577725
2016,IL,Whiteside,41.76123320000001,-89.92147440000001
2016,IL,Will,41.41940579999999,-87.99947540000001
2016,IL,Williamson,37.724850200000006,-88.9143385
2016,IL,Winnebago,42.3255276,-89.1496574
2016,IL,Woodford,40.8145359,-89.2074215
2016,IN,Adams,40.7371667,-84.9347295
2016,IN,Allen,41.0975573,-85.0562084
2016,IN,Bartholomew,39.1914156,-85.82046009999999
2016,IN,Benton,40.6034281,-87.32351640000002
2016,IN,Blackford,40.4692826,-85.33055290000001
2016,IN,Boone,40.0459913,-86.4650842
2016,IN,Brown,39.168285499999996,-86.22970040000001
2016,IN,Carroll,40.5802239,-86.5693296
2016,IN,Cass,40.7808235,-86.3449159
2016,IN,Clark,38.4941217,-85.71690809999998
2016,IN,Clay,39.3864958,-87.1025862
2016,IN,Clinton,40.299276899999995,-86.4692735
2016,IN,Crawford,38.304425,-86.444022
2016,IN,Daviess,38.6776099,-87.08134840000001
2016,IN,Dearborn,39.1340338,-84.98209969999999
2016,IN,Decatur,39.286212799999994,-85.49430579999999
2016,IN,DeKalb,41.3991456,-85.001244
2016,IN,Delaware,40.219327500000006,-85.4040612
2016,IN,Dubois,38.3644324,-86.8870278
2016,IN,Elkhart,41.6819935,-85.9766671
2016,IN,Fayette,39.619234999999996,-85.179378
2016,IN,Floyd,36.9112443,-80.3200502
2016,IN,Fountain,40.125252,-87.2497418
2016,IN,Franklin,39.480605600000004,-86.0549863
2016,IN,Fulton,41.0421416,-86.2875206
2016,IN,Gibson,38.3079744,-87.57759490000001
2016,IN,Grant,40.5114735,-85.6540606
2016,IN,Greene,39.022710700000005,-86.99584890000001
2016,IN,Hamilton,40.0749813,-86.0498885
2016,IN,Hancock,39.8127873,-85.7874738
2016,IN,Harrison,38.1816187,-86.1066917
2016,IN,Hendricks,39.7565309,-86.5173641
2016,IN,Henry,39.9297608,-85.4043542
2016,IN,Howard,40.4787061,-86.1350343
2016,IN,Huntington,40.8008286,-85.50184940000001
2016,IN,Jackson,38.9023184,-86.06508559999999
2016,IN,Jasper,41.0321808,-87.1066598
2016,IN,Jay,40.4370864,-85.0212356
2016,IN,Jefferson,38.8166724,-85.4299489
2016,IN,Jennings,38.9957749,-85.63592009999999
2016,IN,Johnson,39.4891804,-86.1079903
2016,IN,Knox,38.687009,-87.3811461
2016,IN,Kosciusko,41.235195700000006,-85.85297309999999
2016,IN,LaGrange,41.6372578,-85.4216948
2016,IN,Lake,41.419382899999995,-87.36922270000001
2016,IN,LaPorte,41.61059829999999,-86.72252270000001
2016,IN,Lawrence,39.8386516,-86.0252612
2016,IN,Madison,40.1624531,-85.7260804
2016,IN,Marion,40.5583739,-85.6591442
2016,IN,Marshall,41.322843,-86.2809625
2016,IN,Martin,38.6705579,-86.8022436
2016,IN,Miami,40.6144919,-86.10594429999999
2016,IN,Monroe,39.129423700000004,-86.5187646
2016,IN,Montgomery,40.0361447,-86.9007083
2016,IN,Morgan,39.4665575,-86.45567940000001
2016,IN,Newton,40.939576,-87.3966953
2016,IN,Noble,41.3990708,-85.4193348
2016,IN,Ohio,38.948049600000004,-84.9581728
2016,IN,Orange,38.5421361,-86.4953216
2016,IN,Owen,39.298451799999995,-86.85085620000001
2016,IN,Parke,39.7686321,-87.2158436
2016,IN,Perry,38.0893386,-86.632911
2016,IN,Pike,38.415943299999995,-87.21414399999999
2016,IN,Porter,41.445703200000004,-87.07249709999999
2016,IN,Posey,38.0145359,-87.8543645
2016,IN,Pulaski,41.031393,-86.69906920000001
2016,IN,Putnam,39.6666195,-86.8374032
2016,IN,Randolph,40.1560108,-85.011566
2016,IN,Ripley,39.0846316,-85.26917840000002
2016,IN,Rush,39.622035700000005,-85.4731911
2016,IN,St. Joseph,41.1052896,-85.1325566
2016,IN,Scott,38.6727039,-85.7444145
2016,IN,Shelby,39.493485,-85.81905959999999
2016,IN,Spencer,38.0288806,-86.9976446
2016,IN,Starke,41.2753164,-86.64575649999999
2016,IN,Steuben,41.6414101,-85.0023642
2016,IN,Sullivan,39.049272200000004,-87.41726440000001
2016,IN,Switzerland,38.824925799999995,-85.0373975
2016,IN,Tippecanoe,40.391606599999996,-86.8879689
2016,IN,Tipton,40.2899154,-86.058442
2016,IN,Union,39.6196086,-84.9292376
2016,IN,Vanderburgh,38.0461185,-87.58065529999999
2016,IN,Vermillion,39.8763626,-87.4635672
2016,IN,Vigo,39.4174652,-87.39742690000001
2016,IN,Wabash,40.8065352,-85.7833563
2016,IN,Warren,40.3424546,-87.3564255
2016,IN,Warrick,38.0906065,-87.27589329999999
2016,IN,Washington,38.6592152,-87.172789
2016,IN,Wayne,39.8638778,-85.01985859999999
2016,IN,Wells,40.7013353,-85.21161020000001
2016,IN,White,40.7422434,-86.8713913
2016,IN,Whitley,41.1238216,-85.5035187
2016,IA,Adair,41.3127814,-94.49533029999999
2016,IA,Adams,41.0161621,-94.68501859999999
2016,IA,Allamakee,43.296173100000004,-91.3961856
2016,IA,Appanoose,40.7455904,-92.8649061
2016,IA,Audubon,41.670204999999996,-94.91065259999999
2016,IA,Benton,42.0599693,-92.0776319
2016,IA,Black Hawk,42.4607526,-92.3030235
2016,IA,Boone,42.017179799999994,-93.9254114
2016,IA,Bremer,42.7669649,-92.30998559999999
2016,IA,Buchanan,42.4634928,-91.8449198
2016,IA,Buena Vista,42.7445814,-95.1127525
2016,IA,Butler,42.733651200000004,-92.78194930000001
2016,IA,Calhoun,42.3808184,-94.6332459
2016,IA,Carroll,42.019362799999996,-94.86033499999999
2016,IA,Cass,41.3122834,-94.9215151
2016,IA,Cedar,41.760860799999996,-91.1263198
2016,IA,Cerro Gordo,43.0742443,-93.2548746
2016,IA,Cherokee,42.7247968,-95.62498029999999
2016,IA,Chickasaw,43.059940000000005,-92.31667900000001
2016,IA,Clarke,41.0152092,-93.78429759999999
2016,IA,Clay,43.080937299999995,-95.1407762
2016,IA,Clayton,42.8547706,-91.3667151
2016,IA,Clinton,41.8444735,-90.1887379
2016,IA,Crawford,42.020579,-95.38118840000001
2016,IA,Dallas,41.6744179,-94.0394437
2016,IA,Davis,40.7474784,-92.3965311
2016,IA,Decatur,40.741823100000005,-93.7994193
2016,IA,Delaware,42.4663805,-91.3621282
2016,IA,Des Moines,41.5910641,-93.60371490000001
2016,IA,Dickinson,43.375301799999995,-95.16542790000001
2016,IA,Dubuque,42.5006217,-90.66479670000001
2016,IA,Emmet,43.3707528,-94.6749933
2016,IA,Fayette,42.8420766,-91.85026500000001
2016,IA,Floyd,43.058789399999995,-92.78305390000001
2016,IA,Franklin,42.7285907,-93.2513168
2016,IA,Fremont,40.7345943,-95.5924782
2016,IA,Greene,42.0182893,-94.40058640000001
2016,IA,Grundy,42.4132701,-92.7808666
2016,IA,Guthrie,41.672197600000004,-94.4985983
2016,IA,Hamilton,42.382945,-93.7083849
2016,IA,Hancock,43.08477020000001,-93.7363674
2016,IA,Hardin,42.3840463,-93.22939179999999
2016,IA,Harrison,41.665915500000004,-95.7976315
2016,IA,Henry,40.977830100000006,-91.5511282
2016,IA,Howard,43.3353641,-92.3230007
2016,IA,Humboldt,42.7756032,-94.19561329999999
2016,IA,Ida,42.378837100000005,-95.4949407
2016,IA,Iowa,41.683983000000005,-92.06122679999999
2016,IA,Jackson,42.1420382,-90.5480067
2016,IA,Jasper,41.679130799999996,-93.0647786
2016,IA,Jefferson,41.0131342,-91.9718642
2016,IA,Johnson,41.6861834,-91.6061124
2016,IA,Jones,42.108196899999996,-91.1427196
2016,IA,Keokuk,40.3973423,-91.385202
2016,IA,Kossuth,43.1825351,-94.209098
2016,IA,Lee,40.6524894,-91.507313
2016,IA,Linn,42.0631825,-91.6037932
2016,IA,Louisa,41.206668,-91.26839759999999
2016,IA,Lucas,41.0147422,-93.3427643
2016,IA,Lyon,43.3747071,-96.2081917
2016,IA,Madison,41.313340600000004,-94.0167968
2016,IA,Mahaska,41.314939,-92.6489935
2016,IA,Marion,42.0341658,-91.59767729999999
2016,IA,Marshall,42.0378125,-92.9915704
2016,IA,Mills,41.0171392,-95.60874770000001
2016,IA,Mitchell,43.342033,-92.7840209
2016,IA,Monona,43.0516494,-91.3893041
2016,IA,Monroe,41.0142519,-92.87925440000001
2016,IA,Montgomery,41.0166807,-95.1753285
2016,IA,Muscatine,41.424473,-91.0432051
2016,IA,O'Brien,43.0755779,-95.6277063
2016,IA,Osceola,43.36846129999999,-95.6299944
2016,IA,Page,40.736337,-95.1602396
2016,IA,Palo Alto,43.076282899999995,-94.6625047
2016,IA,Plymouth,42.7369124,-96.2213607
2016,IA,Pocahontas,42.726268100000006,-94.64773829999999
2016,IA,Polk,41.676580799999996,-93.5921448
2016,IA,Pottawattamie,41.3115686,-95.53312690000001
2016,IA,Poweshiek,41.681651200000005,-92.5435034
2016,IA,Ringgold,40.7399875,-94.2547473
2016,IA,Sac,42.379785399999996,-95.0825306
2016,IA,Scott,41.6251843,-90.61642009999998
2016,IA,Shelby,41.668243,-95.31636230000001
2016,IA,Sioux,43.057407899999994,-96.1602368
2016,IA,Story,42.0161612,-93.489194
2016,IA,Tama,42.056810799999994,-92.5433918
2016,IA,Taylor,40.738254,-94.6847413
2016,IA,Union,41.015699,-94.24726940000001
2016,IA,Van Buren,40.749202000000004,-91.9689529
2016,IA,Wapello,41.0137597,-92.4140217
2016,IA,Warren,41.3138645,-93.5685324
2016,IA,Washington,41.316008200000006,-91.7340327
2016,IA,Wayne,40.743661200000005,-93.343458
2016,IA,Webster,42.43260720000001,-94.18431600000001
2016,IA,Winnebago,43.374787899999994,-93.7316088
2016,IA,Winneshiek,43.2677179,-91.8563139
2016,IA,Woodbury,42.3775361,-96.06071870000001
2016,IA,Worth,43.369676399999996,-93.2658698
2016,IA,Wright,42.7404452,-93.7325849
2016,KS,Allen,37.888216799999995,-95.3170208
2016,KS,Anderson,38.198077000000005,-95.30674609999998
2016,KS,Atchison,39.545815999999995,-95.3326052
2016,KS,Barber,37.2113342,-98.70332629999999
2016,KS,Barton,38.4683432,-98.776234
2016,KS,Bourbon,37.8485797,-94.8679591
2016,KS,Brown,39.824222999999996,-95.58199520000001
2016,KS,Butler,37.77924,-96.8456342
2016,KS,Chase,50.68131465,14.018954668504698
2016,KS,Chautauqua,37.146335,-96.26569659999998
2016,KS,Cherokee,37.1718068,-94.84820690000001
2016,KS,Cheyenne,39.7955799,-101.75754909999999
2016,KS,Clark,37.2045719,-99.8133765
2016,KS,Clay,39.3615169,-97.1718432
2016,KS,Cloud,39.4850226,-97.6705137
2016,KS,Coffey,38.235413,-95.7498925
2016,KS,Comanche,37.19609439999999,-99.29583829999999
2016,KS,Cowley,37.241315500000006,-96.8675685
2016,KS,Crawford,37.503889,-94.86524659999999
2016,KS,Decatur,39.7940527,-100.472769
2016,KS,Dickinson,38.8790615,-97.1893341
2016,KS,Doniphan,39.7831556,-95.1776492
2016,KS,Douglas,38.883839200000004,-95.2874559
2016,KS,Edwards,37.868474299999995,-99.3245584
2016,KS,Elk,37.4619149,-96.25284509999999
2016,KS,Ellis,38.9206744,-99.32670859999999
2016,KS,Ellsworth,38.6942009,-98.2149289
2016,KS,Finney,38.0452481,-100.8199963
2016,KS,Ford,50.6504947,13.742865700000001
2016,KS,Franklin,38.5720008,-95.3184483
2016,KS,Geary,38.9885445,-96.7619968
2016,KS,Gove,38.9030073,-100.5073968
2016,KS,Graham,39.34062,-99.8980624
2016,KS,Grant,37.553026,-101.3067042
2016,KS,Gray,37.7221896,-100.4373907
2016,KS,Greeley,38.457035499999996,-101.8185007
2016,KS,Greenwood,37.8709542,-96.2471338
2016,KS,Hamilton,38.0058948,-101.8141159
2016,KS,Harper,37.192206799999994,-98.0835849
2016,KS,Harvey,38.0352315,-97.4486267
2016,KS,Haskell,37.5611249,-100.8840421
2016,KS,Hodgeman,38.0875979,-99.900952
2016,KS,Jackson,39.403091700000004,-95.8159647
2016,KS,Jefferson,39.240589299999996,-95.391413
2016,KS,Jewell,39.795263,-98.2255146
2016,KS,Johnson,38.883793299999994,-94.8389141
2016,KS,Kearny,37.9960049,-101.35233559999999
2016,KS,Kingman,37.5420937,-98.12217199999999
2016,KS,Kiowa,37.5529578,-99.29655600000001
2016,KS,Labette,37.1899712,-95.3103729
2016,KS,Lane,38.46516629999999,-100.4776682
2016,KS,Leavenworth,39.311325700000005,-94.922759
2016,KS,Lincoln,39.0343606,-98.21555040000001
2016,KS,Linn,38.196592700000004,-94.8578272
2016,KS,Logan,38.9058216,-101.15523809999999
2016,KS,Lyon,38.4573987,-96.1683124
2016,KS,McPherson,38.3659015,-97.65751709999999
2016,KS,Marion,38.3734544,-97.1305937
2016,KS,Marshall,39.7865054,-96.52556609999999
2016,KS,Meade,37.20911160000001,-100.396302
2016,KS,Miami,38.562051399999994,-94.8557402
2016,KS,Mitchell,39.3863019,-98.21126290000001
2016,KS,Montgomery,37.198394799999996,-95.76283409999999
2016,KS,Morris,38.6908906,-96.6707526
2016,KS,Morton,37.1960735,-101.8099541
2016,KS,Nemaha,39.7880532,-96.0157844
2016,KS,Neosho,37.556634499999994,-95.33166
2016,KS,Ness,38.4713429,-99.9586896
2016,KS,Norton,39.794470200000006,-99.9100033
2016,KS,Osage,38.6736049,-95.7367738
2016,KS,Osborne,39.335155799999995,-98.79335090000001
2016,KS,Ottawa,39.1273653,-97.6568094
2016,KS,Pawnee,38.1858758,-99.240825
2016,KS,Phillips,39.796154200000004,-99.346586
2016,KS,Pottawatomie,39.3928203,-96.34142790000001
2016,KS,Pratt,37.6280602,-98.7485305
2016,KS,Rawlins,39.7904797,-101.09947220000001
2016,KS,Reno,50.6397427,13.823623300000001
2016,KS,Republic,39.8266503,-97.65808340000001
2016,KS,Rice,38.3266261,-98.2007179
2016,KS,Riley,39.3026347,-96.7709339
2016,KS,Rooks,39.3494127,-99.3216587
2016,KS,Rush,38.504775200000005,-99.309214
2016,KS,Russell,38.897050799999995,-98.79804329999999
2016,KS,Saline,38.77044620000001,-97.6669832
2016,KS,Scott,38.4584915,-100.9336244
2016,KS,Sedgwick,37.6448148,-97.46413879999999
2016,KS,Seward,37.1850331,-100.8928434
2016,KS,Shawnee,39.027367600000005,-95.7627535
2016,KS,Sheridan,39.3530598,-100.4576457
2016,KS,Sherman,39.34121270000001,-101.7492408
2016,KS,Smith,39.796749,-98.79353929999999
2016,KS,Stafford,38.0350094,-98.718816
2016,KS,Stanton,37.569107200000005,-101.7935648
2016,KS,Stevens,37.1929045,-101.31193540000001
2016,KS,Sumner,37.2435967,-97.4792142
2016,KS,Thomas,39.3529613,-101.08102290000001
2016,KS,Trego,38.9289979,-99.91305720000001
2016,KS,Wabaunsee,38.9468399,-96.19912409999999
2016,KS,Wallace,38.9073846,-101.7565099
2016,KS,Washington,39.788747799999996,-97.0917391
2016,KS,Wichita,37.6922361,-97.3375448
2016,KS,Wilson,37.5692118,-95.74526390000001
2016,KS,Woodson,37.8811369,-95.7517113
2016,KS,Wyandotte,39.1090458,-94.767624
2016,KY,Adair,37.095455799999996,-85.289922
2016,KY,Allen,36.7528961,-86.1924103
2016,KY,Anderson,38.0096811,-84.9880147
2016,KY,Ballard,37.023152100000004,-88.9888619
2016,KY,Barren,36.958464899999996,-85.92581700000001
2016,KY,Bath,38.124524799999996,-83.7249243
2016,KY,Bell,36.7370344,-83.6491695
2016,KY,Boone,38.9589235,-84.71601209999999
2016,KY,Bourbon,38.194486700000006,-84.2046611
2016,KY,Boyd,38.3608934,-82.6945926
2016,KY,Boyle,37.6240938,-84.8540572
2016,KY,Bracken,38.686946,-84.07514609999998
2016,KY,Breathitt,37.5248869,-83.2943551
2016,KY,Breckinridge,37.74063889999999,-86.4109353
2016,KY,Bullitt,37.9749498,-85.6742394
2016,KY,Butler,37.240158,-86.67392099999999
2016,KY,Caldwell,37.116966600000005,-87.83912109999999
2016,KY,Calloway,36.6257937,-88.27107600000001
2016,KY,Campbell,38.9339799,-84.37152859999999
2016,KY,Carlisle,36.8432751,-88.96368170000001
2016,KY,Carroll,38.65718,-85.1000246
2016,KY,Carter,38.319917100000005,-83.00390340000001
2016,KY,Casey,37.2911032,-84.91462940000001
2016,KY,Christian,36.877866499999996,-87.50145450000001
2016,KY,Clark,37.9713791,-84.15501450000001
2016,KY,Clay,37.1540436,-83.72314399999999
2016,KY,Clinton,36.7190018,-85.1426047
2016,KY,Crittenden,37.3600974,-88.08851059999999
2016,KY,Cumberland,36.7934611,-85.3795095
2016,KY,Daviess,37.6877924,-87.08183570000001
2016,KY,Edmonson,37.199918100000005,-86.2206738
2016,KY,Elliott,38.1178636,-83.0656398
2016,KY,Estill,37.6896864,-83.94072790000001
2016,KY,Fayette,38.028064799999996,-84.47224440000001
2016,KY,Fleming,38.366388799999996,-83.6790737
2016,KY,Floyd,37.547345899999996,-82.76456209999999
2016,KY,Franklin,38.25204229999999,-84.8633812
2016,KY,Fulton,36.55770820000001,-89.102082
2016,KY,Gallatin,38.7531444,-84.8435828
2016,KY,Garrard,37.6360342,-84.5408428
2016,KY,Grant,38.6472221,-84.6162564
2016,KY,Graves,36.7244966,-88.6569094
2016,KY,Grayson,37.453743700000004,-86.3389464
2016,KY,Green,37.2433976,-85.53463020000001
2016,KY,Greenup,38.5108112,-82.9180186
2016,KY,Hancock,37.8189002,-86.75322609999999
2016,KY,Hardin,37.6645815,-85.9634901
2016,KY,Harlan,36.8411336,-83.22678
2016,KY,Harrison,38.4355948,-84.3216412
2016,KY,Hart,37.2921203,-85.8845579
2016,KY,Henderson,37.836751299999996,-87.59076309999999
2016,KY,Henry,38.447983,-85.1191168
2016,KY,Hickman,36.6903525,-88.9587214
2016,KY,Hopkins,37.300681700000005,-87.5612458
2016,KY,Jackson,37.4200233,-83.9913882
2016,KY,Jefferson,38.1787175,-85.664528
2016,KY,Jessamine,37.865286600000005,-84.576902
2016,KY,Johnson,37.8397984,-82.8159642
2016,KY,Kenton,38.9252546,-84.5331967
2016,KY,Knott,37.3521946,-82.9314574
2016,KY,Knox,36.8934427,-83.8545725
2016,KY,Larue,37.5257936,-85.7027413
2016,KY,Laurel,37.1000973,-84.11482729999999
2016,KY,Lawrence,38.060180700000004,-82.7316588
2016,KY,Lee,37.6001442,-83.70730429999999
2016,KY,Leslie,37.082981,-83.3750732
2016,KY,Letcher,37.1208843,-82.8451698
2016,KY,Lewis,38.5192128,-83.3400338
2016,KY,Lincoln,37.4657952,-84.65736770000001
2016,KY,Livingston,37.189862700000006,-88.33438249999999
2016,KY,Logan,36.823707,-86.88336070000001
2016,KY,Lyon,36.9981232,-88.0658149
2016,KY,McCracken,37.033583899999996,-88.71072009999999
2016,KY,McCreary,36.735774,-84.4960095
2016,KY,McLean,37.521627200000005,-87.2594272
2016,KY,Madison,37.7298081,-84.2974735
2016,KY,Magoffin,37.685987299999994,-83.03904399999999
2016,KY,Marion,37.541374700000006,-85.2650391
2016,KY,Marshall,36.8624306,-88.3264641
2016,KY,Martin,37.802224200000005,-82.5077178
2016,KY,Mason,38.5755445,-83.8118236
2016,KY,Meade,37.93133710000001,-86.1902231
2016,KY,Menifee,37.935760200000004,-83.6014187
2016,KY,Mercer,37.8087581,-84.87608359999999
2016,KY,Metcalfe,36.97670170000001,-85.62544840000001
2016,KY,Monroe,36.699465000000004,-85.7284653
2016,KY,Montgomery,38.0372304,-83.9152368
2016,KY,Morgan,37.919875899999994,-83.2097119
2016,KY,Muhlenberg,37.1984359,-87.1417319
2016,KY,Nelson,37.8078463,-85.4741595
2016,KY,Nicholas,38.3287954,-84.01535809999999
2016,KY,Ohio,37.475769799999995,-86.85606390000001
2016,KY,Oldham,38.497563899999996,-85.4210695
2016,KY,Owen,38.5303187,-84.819254
2016,KY,Owsley,37.4082295,-83.68199399999999
2016,KY,Pendleton,38.691460600000006,-84.3689142
2016,KY,Perry,37.220360799999995,-83.1640699
2016,KY,Pike,37.451243100000006,-82.38557220000001
2016,KY,Powell,37.8192526,-83.8239902
2016,KY,Pulaski,37.112478100000004,-84.59389300000001
2016,KY,Robertson,38.513372,-84.0465647
2016,KY,Rockcastle,37.3885959,-84.3254309
2016,KY,Rowan,38.1822638,-83.4039128
2016,KY,Russell,38.517302799999996,-82.6976631
2016,KY,Scott,38.2776401,-84.5816131
2016,KY,Shelby,38.2215625,-85.2111267
2016,KY,Simpson,36.73518,-86.57801020000001
2016,KY,Spencer,38.0237475,-85.32038990000001
2016,KY,Taylor,37.3396409,-85.30966070000001
2016,KY,Todd,36.809847399999995,-87.1728185
2016,KY,Trigg,36.7949221,-87.8782433
2016,KY,Trimble,38.59842020000001,-85.3221506
2016,KY,Union,37.637246999999995,-87.95803599999999
2016,KY,Warren,36.9812407,-86.42335329999999
2016,KY,Washington,37.7310874,-85.17504749999999
2016,KY,Wayne,36.782210600000006,-84.8250848
2016,KY,Webster,37.5139929,-87.6650997
2016,KY,Whitley,36.73243239999999,-84.1512134
2016,KY,Wolfe,37.74305089999999,-83.48685909999999
2016,KY,Woodford,38.0686424,-84.7404532
2016,LA,Acadia,30.2740735,-92.39570359999999
2016,LA,Allen,37.888216799999995,-95.3170208
2016,LA,Ascension,-7.942,-14.357894725
2016,LA,Assumption,29.9185432,-91.05339959999999
2016,LA,Avoyelles,31.0471604,-92.0019698
2016,LA,Beauregard,44.5389786,0.6870918
2016,LA,Bienville,32.3231432,-93.0761115
2016,LA,Bossier,32.6676663,-93.5959786
2016,LA,Caddo,32.529173,-93.8931785
2016,LA,Calcasieu,30.223201500000002,-93.3434067
2016,LA,Caldwell,39.6558966,-93.9997281
2016,LA,Cameron,4.6125522000000005,13.153581099999998
2016,LA,Catahoula,31.729468100000005,-91.84871070000001
2016,LA,Claiborne,10000.0,10000.0
2016,LA,Concordia,31.394188699999997,-91.6714379
2016,LA,De Soto,32.01953880000001,-93.7488946
2016,LA,East Baton Rouge,30.5254797,-91.0899217
2016,LA,East Carroll,32.6949938,-91.2605142
2016,LA,East Feliciana,30.846216499999997,-91.04057990000001
2016,LA,Evangeline,30.697677600000002,-92.42178129999999
2016,LA,Franklin,37.976540899999996,-88.9335327
2016,LA,Grant,37.553026,-101.3067042
2016,LA,Iberia,39.8952029,-4.49836304748148
2016,LA,Iberville,30.2120844,-91.31336230000001
2016,LA,Jackson,32.29903839999999,-90.1847691
2016,LA,Jefferson,38.3010487,-88.9344303
2016,LA,Jefferson Davis,30.257550300000002,-92.7886576
2016,LA,Lafayette,30.2240897,-92.0198427
2016,LA,Lafourche,29.582015500000004,-90.39648890000001
2016,LA,La Salle,41.3333679,-89.0917497
2016,LA,Lincoln,40.8,-96.66782099999999
2016,LA,Livingston,40.8682487,-88.5631125
2016,LA,Madison,38.811063,-89.90171120000001
2016,LA,Morehouse,32.8326959,-91.8374127
2016,LA,Natchitoches,31.760673200000003,-93.08602090000001
2016,LA,Orleans,45.481032299999995,-75.5100002
2016,LA,Ouachita,32.4790511,-92.16150040000001
2016,LA,Plaquemines,29.4291161,-89.51235240000001
2016,LA,Pointe Coupee,30.6194283,-91.5740887
2016,LA,Rapides,31.1719886,-92.5526386
2016,LA,Red River,50.225757,-5.3701346
2016,LA,Richland,38.706045700000004,-88.09493520000001
2016,LA,Sabine,31.522304899999998,-93.5265161
2016,LA,St. Bernard,45.09180035,6.07161504396034
2016,LA,St. Charles,41.9139516,-88.3125302
2016,LA,St. Helena,-15.968686199999999,-5.7129557
2016,LA,St. James,30.009668400000002,-90.7989525
2016,LA,St. John the Baptist,30.1141748,-90.5276838
2016,LA,St. Landry,30.6174002,-92.0035057
2016,LA,St. Martin,50.6973241,13.8468397
2016,LA,St. Mary,29.692328999999997,-91.442465
2016,LA,St. Tammany,30.4243909,-89.9730381
2016,LA,Tangipahoa,30.632302399999997,-90.43157540000001
2016,LA,Tensas,31.9834216,-91.3708695
2016,LA,Terrebonne,45.7081005,-73.6515157
2016,LA,Union,50.357040999999995,13.794575699999998
2016,LA,Vermilion,40.1749809,-87.73238570000001
2016,LA,Vernon,10000.0,10000.0
2016,LA,Washington,38.8950092,-77.0365625
2016,LA,Webster,10000.0,10000.0
2016,LA,West Baton Rouge,30.451462300000003,-91.3261882
2016,LA,West Carroll,32.7864174,-91.45863659999999
2016,LA,West Feliciana,30.8842729,-91.4016657
2016,LA,Winn,31.947293,-92.6401816
2016,ME,Androscoggin,44.1402839,-70.196395
2016,ME,Aroostook,46.68479620000001,-68.4701132
2016,ME,Cumberland,43.8506432,-70.4001498
2016,ME,Franklin,44.916814,-70.4395797
2016,ME,Hancock,44.7135397,-68.2994753
2016,ME,Kennebec,44.4184616,-69.8250659
2016,ME,Knox,44.1773049,-69.2127109
2016,ME,Lincoln,44.1137571,-69.5351337
2016,ME,Oxford,44.4694529,-70.7782375
2016,ME,Penobscot,45.2930166,-68.5957766
2016,ME,Piscataquis,45.8358193,-69.2923096
2016,ME,Sagadahoc,43.9900158,-69.8654643
2016,ME,Somerset,45.4538403,-70.0997288
2016,ME,Waldo,44.4870161,-69.1365185
2016,ME,Washington,44.9744397,-67.6287553
2016,ME,York,43.1659436,-70.6350963839679
2016,MD,Allegany,39.6572451,-78.6550628
2016,MD,Anne Arundel,38.9722583,-76.573454
2016,MD,Baltimore,39.2908816,-76.610759
2016,MD,Calvert,38.5288529,-76.537764
2016,MD,Caroline,38.8550631,-75.8247398
2016,MD,Carroll,39.5685399,-77.026707
2016,MD,Cecil,39.5729428,-75.9381806
2016,MD,Charles,38.4991611,-77.027847
2016,MD,Dorchester,38.3930694,-76.0995677
2016,MD,Frederick,39.4142186,-77.4109269
2016,MD,Garrett,39.544087,-79.2496976
2016,MD,Harford,39.548545,-76.3048991
2016,MD,Howard,39.2305289,-76.9166241
2016,MD,Kent,39.2587546,-76.1038454
2016,MD,Montgomery,39.1406267,-77.2075612
2016,MD,Prince George's,38.803929,-76.8518695
2016,MD,Queen Anne's,39.0273331,-76.0616856
2016,MD,St. Mary's,38.206621,-76.5389973
2016,MD,Somerset,38.9673017,-77.0955064
2016,MD,Talbot,38.7542065,-76.1919824
2016,MD,Washington,39.5893502,-77.710254
2016,MD,Wicomico,38.3888688,-75.635738
2016,MD,Worcester,38.2231182,-75.3319465
2016,MD,Baltimore City,39.2668137,-76.6178376939143
2016,MA,Barnstable,41.7001132,-70.2994666
2016,MA,Berkshire,42.3999954,-73.2322639
2016,MA,Bristol,41.7425538,-71.0856545
2016,MA,Dukes,41.3926378,-70.642011
2016,MA,Essex,42.629142,-70.8664947
2016,MA,Franklin,42.5896205,-72.6110645
2016,MA,Hampden,42.1285315,-72.6063441
2016,MA,Hampshire,42.3432499,-72.6213339
2016,MA,Middlesex,42.485452,-71.3968261
2016,MA,Nantucket,41.2657181,-70.0683144
2016,MA,Norfolk,42.1538607,-71.1828015
2016,MA,Plymouth,41.9583799,-70.6673851
2016,MA,Suffolk,42.3544455,-70.9788771
2016,MA,Worcester,42.2625932,-71.8022934
2016,MI,Alcona,44.6765986,-83.5908023
2016,MI,Alger,46.4047895,-86.5280993
2016,MI,Allegan,42.5291989,-85.8553031
2016,MI,Alpena,45.0616794,-83.4327528
2016,MI,Antrim,44.9947369,-85.1133189
2016,MI,Arenac,44.0608193,-83.8718694
2016,MI,Baraga,46.6354348,-88.3876368
2016,MI,Barry,42.5910739,-85.3242417
2016,MI,Bay,43.6957567,-83.9402747
2016,MI,Benzie,44.6408868,-85.9928452
2016,MI,Berrien,41.9838614,-86.3985714
2016,MI,Branch,41.916753,-85.0649374
2016,MI,Calhoun,42.2461339,-85.0229223
2016,MI,Cass,41.9090169,-85.9970051
2016,MI,Charlevoix,45.317649,-85.258348
2016,MI,Cheboygan,45.646956,-84.47448
2016,MI,Chippewa,46.3111149,-84.6428564
2016,MI,Clare,43.9688673,-84.8505091
2016,MI,Clinton,42.9435238,-84.6125345
2016,MI,Crawford,44.6769346,-84.6237147
2016,MI,Delta,46.0236602,-86.8950252
2016,MI,Dickinson,45.9874631,-87.8864905
2016,MI,Eaton,42.5935964,-84.8443666
2016,MI,Emmet,45.5064041,-84.8567966
2016,MI,Genesee,43.0220032,-83.7274305
2016,MI,Gladwin,43.9747774,-84.3873235
2016,MI,Gogebic,46.403433,-89.6626791
2016,MI,Grand Traverse,44.6409162,-85.5801336
2016,MI,Gratiot,43.2903117,-84.6098023
2016,MI,Hillsdale,41.9200472,-84.6305101
2016,MI,Houghton,46.8591287,-88.7774734
2016,MI,Huron,43.8385749,-83.0221987
2016,MI,Ingham,42.5860505,-84.3800841
2016,MI,Ionia,42.9469688,-85.0713945
2016,MI,Iosco,44.3501989,-83.6582168
2016,MI,Iron,46.2178577,-88.5463241
2016,MI,Isabella,43.6306545,-84.8468516
2016,MI,Jackson,42.2465036,-84.4016963
2016,MI,Kalamazoo,42.291707,-85.5872286
2016,MI,Kalkaska,44.734173,-85.175887
2016,MI,Kent,43.0024013,-85.5502718
2016,MI,Keweenaw,47.3876058,-88.0742387
2016,MI,Lake,43.9699997,-85.7884997
2016,MI,Lapeer,43.0904764,-83.2333705
2016,MI,Leelanau,44.8878795,-85.8119919
2016,MI,Lenawee,41.8735258,-84.0624323
2016,MI,Livingston,42.5924563,-83.9147925
2016,MI,Luce,46.4824144,-85.5556156
2016,MI,Mackinac,46.085237,-85.0336698
2016,MI,Macomb,42.6741189,-82.902901
2016,MI,Manistee,44.244447,-86.324253
2016,MI,Marquette,46.5434914,-87.396433
2016,MI,Mason,42.5797113,-84.4422845
2016,MI,Mecosta,43.6375503,-85.3168199
2016,MI,Menominee,45.5785741,-87.562159
2016,MI,Midland,43.6155825,-84.2472117
2016,MI,Missaukee,44.336979,-85.1070535
2016,MI,Monroe,41.9145037,-83.3968252
2016,MI,Montcalm,43.3055418,-85.112198
2016,MI,Montmorency,45.0192008,-84.1322903
2016,MI,Muskegon,43.2341813,-86.2483921
2016,MI,Newaygo,43.5121225,-85.7944976
2016,MI,Oakland,42.6618842,-83.3804439
2016,MI,Oceana,43.6200297,-86.277073
2016,MI,Ogemaw,44.3364914,-84.125549
2016,MI,Ontonagon,46.6471877,-89.3293792
2016,MI,Osceola,43.9654579,-85.3310847
2016,MI,Oscoda,44.4202933,-83.330801
2016,MI,Otsego,42.4605904,-85.696406
2016,MI,Ottawa,42.9547143,-85.9827867
2016,MI,Presque Isle,45.3375258,-83.9567881
2016,MI,Roscommon,44.3326932,-84.6165164
2016,MI,Saginaw,43.4200387,-83.9490365
2016,MI,St. Clair,42.9426715,-82.6283554
2016,MI,St. Joseph,41.9031963,-85.5356726
2016,MI,Sanilac,43.4150687,-82.8234745
2016,MI,Schoolcraft,46.1902943,-86.1833841
2016,MI,Shiawassee,42.9429488,-84.1458259
2016,MI,Tuscola,43.4776781,-83.3951071
2016,MI,Van Buren,42.2710763,-86.013973
2016,MI,Washtenaw,42.2582044,-83.8440853
2016,MI,Wayne,42.2682408,-83.2844172
2016,MI,Wexford,44.3353211,-85.5741088
2016,MN,Aitkin,46.5714822,-93.3847595
2016,MN,Anoka,45.1977428,-93.3871758
2016,MN,Becker,46.9298236,-95.6761851
2016,MN,Beltrami,47.9978537,-94.8799011
2016,MN,Benton,45.7162129,-94.0481042
2016,MN,Big Stone,45.385266,-96.3557364
2016,MN,Blue Earth,44.0109722,-94.0560643
2016,MN,Brown,44.2350232,-94.6955051
2016,MN,Carlton,46.5799933,-92.7206334
2016,MN,Carver,44.807118,-93.7871792
2016,MN,Cass,47.0234117,-94.3454604
2016,MN,Chippewa,45.027661,-95.5314914
2016,MN,Chisago,45.4758877,-92.8849411
2016,MN,Clay,46.8994904,-96.5088202
2016,MN,Clearwater,45.4194099,-94.0488721
2016,MN,Cook,47.9149076,-90.47301
2016,MN,Cottonwood,44.019068,-95.1658845
2016,MN,Crow Wing,46.4665237,-94.1017044
2016,MN,Dakota,44.666655,-93.044911
2016,MN,Dodge,44.0175404,-92.8678406
2016,MN,Douglas,45.9340479,-95.4627651
2016,MN,Faribault,44.2949637,-93.268827
2016,MN,Fillmore,43.6466588,-92.0636359
2016,MN,Freeborn,43.6763617,-93.3501681
2016,MN,Goodhue,44.396973,-92.7175627
2016,MN,Grant,45.9358795,-96.0272071
2016,MN,Hennepin,45.0257232,-93.4865052
2016,MN,Houston,43.6624222,-91.4685617
2016,MN,Hubbard,47.1138266,-94.9427679
2016,MN,Isanti,45.5355919,-93.2868693
2016,MN,Itasca,47.4968343,-93.6225663
2016,MN,Jackson,43.670011,-95.1500626
2016,MN,Kanabec,45.8979481,-93.2901944
2016,MN,Kandiyohi,45.142373,-95.0025846
2016,MN,Kittson,48.7709208,-96.8074141
2016,MN,Koochiching,48.221596,-93.7684251
2016,MN,Lac Qui Parle,44.986426,-96.2024907
2016,MN,Lake,47.6348022,-91.4394994
2016,MN,Lake of the Woods,48.7032282,-94.8480091
2016,MN,Le Sueur,44.3771652,-93.711443
2016,MN,Lincoln,44.4020631,-96.2627763
2016,MN,Lyon,44.3880733,-95.8287296
2016,MN,McLeod,44.8169135,-94.2495251
2016,MN,Mahnomen,47.3151116,-95.9689651
2016,MN,Marshall,44.446929,-95.788351
2016,MN,Martin,43.6564337,-94.5498419
2016,MN,Meeker,45.1183643,-94.5175345
2016,MN,Mille Lacs,45.9311972,-93.640356
2016,MN,Morrison,45.9926837,-94.2554658
2016,MN,Mower,43.6832277,-92.753704
2016,MN,Murray,44.017855,-95.7615205
2016,MN,Nicollet,44.3380412,-94.2362169
2016,MN,Nobles,43.6634212,-95.7527672
2016,MN,Norman,47.3194344,-96.4625779
2016,MN,Olmsted,43.999812,-92.3765614
2016,MN,Otter Tail,46.4184196,-95.713142
2016,MN,Pennington,48.0513335,-96.0829271
2016,MN,Pine,46.0820957,-92.7542126
2016,MN,Pipestone,44.0270012,-96.2566582
2016,MN,Polk,47.6554613,-96.4193484
2016,MN,Pope,45.5850258,-95.4469471
2016,MN,Ramsey,45.0165728,-93.0949501
2016,MN,Red Lake,47.8605178,-96.0988343
2016,MN,Redwood,44.3788613,-95.2532373
2016,MN,Renville,44.7242874,-94.9084771
2016,MN,Rice,44.3413376,-93.2865484
2016,MN,Rock,43.6733632,-96.2574328
2016,MN,Roseau,48.8460926,-95.7627661
2016,MN,Saint Louis,47.6201005,-92.4363343
2016,MN,Scott,44.6506998,-93.5025726
2016,MN,Sherburne,45.4427088,-93.7459202
2016,MN,Sibley,44.5603522,-94.2085682
2016,MN,Stearns,45.535326,-94.6139422
2016,MN,Steele,44.0137336,-93.2203671
2016,MN,Stevens,45.5837016,-95.9946194
2016,MN,Swift,45.2797223,-95.6898654
2016,MN,Todd,46.0588428,-94.887283
2016,MN,Traverse,45.7836323,-96.4215265
2016,MN,Wabasha,44.2767596,-92.2018164
2016,MN,Wadena,46.5850936,-94.9606684
2016,MN,Waseca,44.0172242,-93.5885717
2016,MN,Washington,45.0078591,-92.8743564
2016,MN,Watonwan,43.9736055,-94.6370354
2016,MN,Wilkin,46.3258354,-96.4586194
2016,MN,Winona,44.0500054,-91.6392294
2016,MN,Wright,45.1489061,-93.9639196
2016,MN,Yellow Medicine,44.7198536,-95.8533555
2016,MS,Adams,31.4904433,-91.3297733
2016,MS,Alcorn,34.8734817,-88.5667345
2016,MS,Amite,31.1729865,-90.8217568
2016,MS,Attala,33.0777868,-89.5680661
2016,MS,Benton,34.8277278,-89.1960486
2016,MS,Bolivar,33.7702263,-90.8519798
2016,MS,Calhoun,33.9253624,-89.3231269
2016,MS,Carroll,33.4230182,-89.9110025
2016,MS,Chickasaw,33.9137474,-88.9357382
2016,MS,Choctaw,33.3569348,-89.2390212
2016,MS,Claiborne,31.9640731,-90.9141968
2016,MS,Clarke,32.0396256,-88.7003965
2016,MS,Clay,33.6393012,-88.7957063
2016,MS,Coahoma,34.1931314,-90.5653906
2016,MS,Copiah,31.8563532,-90.4798717
2016,MS,Covington,31.6143213,-89.5278045
2016,MS,DeSoto,34.8703284,-89.9778704
2016,MS,Forrest,31.1540772,-89.2398601
2016,MS,Franklin,31.467398,-90.8992648
2016,MS,George,30.857421,-88.6537118
2016,MS,Greene,31.2049136,-88.6429687
2016,MS,Grenada,33.7690049,-89.8084192
2016,MS,Hancock,30.3892826,-89.4782116
2016,MS,Harrison,30.4553392,-89.1313136
2016,MS,Hinds,32.2506754,-90.4793259
2016,MS,Holmes,33.1018124,-90.0656168
2016,MS,Humphreys,33.1282074,-90.5408182
2016,MS,Issaquena,32.6773851,-91.0097866
2016,MS,Itawamba,34.2774018,-88.3713687
2016,MS,Jackson,32.2990384,-90.1847691
2016,MS,Jasper,32.0216075,-89.1132111
2016,MS,Jefferson,31.7257154,-91.0335766
2016,MS,Jefferson Davis,31.5576951,-89.8386843
2016,MS,Jones,31.6058959,-89.1636245
2016,MS,Kemper,32.7307497,-88.6604179
2016,MS,Lafayette,34.3519389,-89.4664677
2016,MS,Lamar,31.2109862,-89.5152337
2016,MS,Lauderdale,32.3905206,-88.689636
2016,MS,Lawrence,31.5129753,-90.1205396
2016,MS,Leake,32.7401114,-89.5241292
2016,MS,Lee,34.265749,-88.6913264
2016,MS,Leflore,33.5244154,-90.288095
2016,MS,Lincoln,31.4885409,-90.4480916
2016,MS,Lowndes,33.4466925,-88.4108384
2016,MS,Madison,32.4618086,-90.1153638
2016,MS,Marion,31.2247688,-89.8217717
2016,MS,Marshall,34.7329561,-89.4725635
2016,MS,Monroe,33.8884929,-88.4747009
2016,MS,Montgomery,33.5074528,-89.6182472
2016,MS,Neshoba,32.7237573,-89.103199
2016,MS,Newton,32.3882835,-89.1317486
2016,MS,Noxubee,33.1190254,-88.5916703
2016,MS,Oktibbeha,33.4131096,-88.8937318
2016,MS,Panola,34.3793392,-89.9601925
2016,MS,Pearl River,30.7761973,-89.5984726
2016,MS,Perry,31.153317,-88.9830577
2016,MS,Pike,31.1712493,-90.4093394
2016,MS,Pontotoc,34.2114655,-89.0382651
2016,MS,Prentiss,34.6222512,-88.5153286
2016,MS,Quitman,34.1920186,-90.2946542
2016,MS,Rankin,32.2338702,-89.9484651
2016,MS,Scott,32.3805744,-89.5092509
2016,MS,Sharkey,32.8742585,-90.8478339
2016,MS,Simpson,31.8919593,-89.9323619
2016,MS,Smith,32.0018336,-89.4877278
2016,MS,Stone,30.7843863,-89.1342764
2016,MS,Sunflower,33.4980504,-90.602067
2016,MS,Tallahatchie,33.9414425,-90.1577411
2016,MS,Tate,34.6391489,-89.9335244
2016,MS,Tippah,34.7296814,-88.9119403
2016,MS,Tishomingo,34.7238634,-88.2268403
2016,MS,Tunica,34.6845455,-90.382877
2016,MS,Union,34.4834555,-88.9789198
2016,MS,Walthall,31.1241919,-90.1197687
2016,MS,Warren,32.3649878,-90.7975574
2016,MS,Washington,33.2626706,-90.9183546
2016,MS,Wayne,31.6212491,-88.6858852
2016,MS,Webster,33.6197203,-89.2646598
2016,MS,Wilkinson,31.1371924,-91.3329359
2016,MS,Winston,33.0603103,-89.0495278
2016,MS,Yalobusha,34.0213455,-89.6991703
2016,MS,Yazoo,32.7709321,-90.4120889
2016,MO,Adair,40.1769782,-92.6161167
2016,MO,Andrew,39.9845508,-94.8090258
2016,MO,Atchison,40.4144817,-95.4359392
2016,MO,Audrain,39.2226625,-91.8467268
2016,MO,Barry,36.7033624,-93.8229669
2016,MO,Barton,37.5040024,-94.3620755
2016,MO,Bates,38.2612027,-94.3503613
2016,MO,Benton,38.2930723,-93.3036786
2016,MO,Bollinger,37.3310468,-90.0296175
2016,MO,Boone,10000.0,10000.0
2016,MO,Buchanan,39.6733203,-94.794829
2016,MO,Butler,10000.0,10000.0
2016,MO,Caldwell,39.6558966,-93.9997281
2016,MO,Callaway,38.8491265,-91.9257607
2016,MO,Camden,38.0323133,-92.7638327
2016,MO,Cape Girardeau,37.3058839,-89.5181476
2016,MO,Carroll,39.441912,-93.516971
2016,MO,Carter,36.9303011,-90.9598933
2016,MO,Cass,10000.0,10000.0
2016,MO,Cedar,39.0369048,-94.642018
2016,MO,Chariton,39.5372927,-92.9524728
2016,MO,Christian,36.9586087,-93.1692896
2016,MO,Clark,40.3962004,-91.7362195
2016,MO,Clay,10000.0,10000.0
2016,MO,Clinton,39.5975986,-94.4184896
2016,MO,Cole,38.5189519,-92.2956433
2016,MO,Cooper,38.8452595,-92.8249579
2016,MO,Crawford,37.9920098,-91.3156445
2016,MO,Dade,37.4323036,-93.8406302
2016,MO,Dallas,37.6832712,-93.0219376
2016,MO,Daviess,39.9587505,-93.9962662
2016,MO,DeKalb,39.885757,-94.4078109
2016,MO,Dent,37.6211924,-91.5167381
2016,MO,Douglas,41.2954112,-96.1415672
2016,MO,Dunklin,36.2156534,-90.0591292
2016,MO,Franklin,38.4021095,-91.0841241
2016,MO,Gasconade,38.4575789,-91.5177499
2016,MO,Gentry,40.2044898,-94.4159527
2016,MO,Greene,37.2671929,-93.3465486
2016,MO,Grundy,40.1075648,-93.5737817
2016,MO,Harrison,40.337172,-93.9845199
2016,MO,Henry,38.3791027,-93.8066565
2016,MO,Hickory,37.959055,-93.3334746
2016,MO,Holt,40.0989571,-95.2134565
2016,MO,Howard,10000.0,10000.0
2016,MO,Howell,36.766989,-91.9151975
2016,MO,Iron,49.955,3.6608333
2016,MO,Jackson,39.03540865,-94.3604862534099
2016,MO,Jasper,37.176515,-94.3103412
2016,MO,Jefferson,38.267166,-90.5721889
2016,MO,Johnson,38.7295547,-93.8161034
2016,MO,Knox,10000.0,10000.0
2016,MO,Laclede,37.6475206,-92.6324187
2016,MO,Lafayette,39.0603689,-93.8151868
2016,MO,Lawrence,37.1036975,-93.8535681
2016,MO,Lewis,40.0902418,-91.7013355
2016,MO,Lincoln,40.8,-96.667821
2016,MO,Linn,39.8652349,-93.1104004
2016,MO,Livingston,39.7639036,-93.5573919
2016,MO,McDonald,36.6259839,-94.3529462
2016,MO,Macon,39.8416253,-92.5675118
2016,MO,Madison,37.4914691,-90.3567669
2016,MO,Maries,38.1683782,-91.928925
2016,MO,Marion,39.8080573,-91.6318781
2016,MO,Mercer,40.4095007,-93.5788706
2016,MO,Miller,38.2118765,-92.4343544
2016,MO,Mississippi,39.548248,-91.153628
2016,MO,Moniteau,38.6074608,-92.5851064
2016,MO,Monroe,39.494421,-91.9896892
2016,MO,Montgomery,38.9682313,-91.4821326
2016,MO,Morgan,38.4177341,-92.9183724
2016,MO,New Madrid,36.5749606,-89.6780945
2016,MO,Newton,36.9070237,-94.3424195
2016,MO,Nodaway,40.3483437,-94.8723663
2016,MO,Oregon,44.290253,-121.5502265
2016,MO,Osage,38.4637283,-91.8708392
2016,MO,Ozark,36.6467816,-92.4575198
2016,MO,Pemiscot,36.2104949,-89.8351486
2016,MO,Perry,37.7107349,-89.8430248
2016,MO,Pettis,38.7346291,-93.2991713
2016,MO,Phelps,10000.0,10000.0
2016,MO,Pike,50.56957985,14.03237935
2016,MO,Platte,50.78675,14.031416
2016,MO,Polk,37.6200803,-93.4087994
2016,MO,Pulaski,37.8402606,-92.2248398
2016,MO,Putnam,40.4890407,-92.9709709
2016,MO,Ralls,39.552012,-91.547611
2016,MO,Randolph,39.4418988,-92.5009215
2016,MO,Ray,39.3661726,-93.9888262
2016,MO,Reynolds,37.3762658,-90.9659462
2016,MO,Ripley,36.6478735,-90.8887906
2016,MO,St. Charles,38.7946252,-90.519829
2016,MO,St. Clair,38.0592942,-93.7945456
2016,MO,Ste. Genevieve,37.9814415,-90.041779
2016,MO,St. Francois,37.7763775,-90.5089041
2016,MO,St. Louis County,38.6398744,-90.5188127750124
2016,MO,Saline,10000.0,10000.0
2016,MO,Schuyler,40.4644896,-92.5152037
2016,MO,Scotland,40.4479304,-92.1527305
2016,MO,Scott,37.0516647,-89.5523071
2016,MO,Shannon,37.1498052,-91.4328245
2016,MO,Shelby,39.8004535,-92.071021
2016,MO,Stoddard,36.8556646,-89.9451636
2016,MO,Stone,36.7377156,-93.4555059
2016,MO,Sullivan,40.1993002,-93.1140993
2016,MO,Taney,36.6563729,-93.0665776
2016,MO,Texas,37.3354601,-91.9808332
2016,MO,Vernon,37.8639924,-94.3800151
2016,MO,Warren,38.7535106,-91.1453948
2016,MO,Washington,37.9559513,-90.879099
2016,MO,Wayne,37.1129133,-90.4809149
2016,MO,Webster,10000.0,10000.0
2016,MO,Worth,40.4684837,-94.4176406
2016,MO,Wright,37.2731008,-92.4765999
2016,MO,St. Louis City,38.6271964,-90.2558827
2016,MT,Beaverhead,45.1708403,-112.9537553
2016,MT,Big Horn,45.4608548,-107.5152896
2016,MT,Blaine,48.4023938,-108.9664413
2016,MT,Broadwater,46.3252827,-111.4969303
2016,MT,Carbon,45.2050058,-109.1434792
2016,MT,Carter,45.4812219,-104.5596687
2016,MT,Cascade,47.3271465,-111.3281242
2016,MT,Chouteau,47.8835499,-110.367651
2016,MT,Custer,46.2426088,-105.5692958
2016,MT,Daniels,48.7710629,-105.5123296
2016,MT,Dawson,47.2416708,-104.9259088
2016,MT,Deer Lodge,46.0753795,-113.089332
2016,MT,Fallon,46.3291957,-104.4366483
2016,MT,Fergus,47.2128617,-109.2175566
2016,MT,Flathead,48.3840879,-113.972144
2016,MT,Gallatin,45.4868491,-111.1967693
2016,MT,Garfield,47.2403675,-106.9487371
2016,MT,Glacier,48.6966449,-112.9467116
2016,MT,Golden Valley,46.3040364,-109.1714312
2016,MT,Granite,46.3944149,-113.4687025
2016,MT,Hill,48.6655784,-110.2107103
2016,MT,Jefferson,46.1850019,-112.1388102
2016,MT,Judith Basin,47.0159821,-110.2261158
2016,MT,Lake,47.7142864,-114.1204325
2016,MT,Lewis and Clark,47.2117026,-112.4768049
2016,MT,Liberty,48.5608235,-111.0465825
2016,MT,Lincoln,48.5891095,-115.4911526
2016,MT,McCone,47.5823259,-105.8467942
2016,MT,Madison,45.2963203,-111.8930287
2016,MT,Meagher,46.6305891,-110.8988278
2016,MT,Mineral,47.1330265,-114.9202341
2016,MT,Missoula,46.8700801,-113.9952796
2016,MT,Musselshell,46.4728903,-108.4473635
2016,MT,Park,50.56957985,14.03237935
2016,MT,Petroleum,47.0606518,-108.2769626
2016,MT,Phillips,48.3541037,-107.9275256
2016,MT,Pondera,48.2443094,-112.1206742
2016,MT,Powder River,45.3655661,-105.5982213
2016,MT,Powell,46.9109569,-113.0294193
2016,MT,Prairie,46.8103971,-105.3390398
2016,MT,Ravalli,46.0757223,-114.1139453
2016,MT,Richland,47.8314138,-104.559421
2016,MT,Roosevelt,48.3069516,-104.9709901
2016,MT,Rosebud,46.3894251,-106.6296053
2016,MT,Sanders,47.6801812,-115.1769538
2016,MT,Sheridan,48.7625919,-104.5154683
2016,MT,Silver Bow,45.9009106,-112.6788845
2016,MT,Stillwater,45.6540259,-109.3579352
2016,MT,Sweet Grass,45.8729386,-109.9503947
2016,MT,Teton,47.8455676,-112.2566035
2016,MT,Toole,48.6771309,-111.7312844
2016,MT,Treasure,46.1833795,-107.2625484
2016,MT,Valley,48.3564433,-106.615665
2016,MT,Wheatland,46.4335302,-109.8498047
2016,MT,Wibaux,46.910018,-104.2215171
2016,MT,Yellowstone,45.9645464,-108.276076
2016,NE,Adams,40.5125798,-98.5148588
2016,NE,Antelope,42.1864809,-98.0716943
2016,NE,Arthur,41.5721288,-101.6974898
2016,NE,Banner,41.5563636,-103.7384564
2016,NE,Blaine,41.9195837,-99.979237
2016,NE,Boone,41.7103804,-98.0544842
2016,NE,Box Butte,42.2130279,-103.0700157
2016,NE,Boyd,42.916011,-98.7614212
2016,NE,Brown,42.4068829,-99.9120353
2016,NE,Buffalo,40.9891743,-99.8353938
2016,NE,Burt,41.855662,-96.3357902
2016,NE,Butler,41.2142454,-97.1384119
2016,NE,Cass,40.9017313,-96.1922102
2016,NE,Cedar,42.5947161,-97.2399373
2016,NE,Chase,40.5217576,-101.6931758
2016,NE,Cherry,42.5560174,-101.1503042
2016,NE,Cheyenne,41.2053619,-102.9796713
2016,NE,Clay,40.5020772,-98.0695257
2016,NE,Colfax,41.5738643,-97.0828487
2016,NE,Cuming,41.9233919,-96.7921475
2016,NE,Custer,41.4022198,-99.7272241
2016,NE,Dakota,42.4049316,-96.5677015
2016,NE,Dawes,42.71723,-103.1216528
2016,NE,Dawson,40.8776438,-99.8505693
2016,NE,Deuel,41.1097054,-102.3261249
2016,NE,Dixon,42.4351249,-96.8792569
2016,NE,Dodge,41.58577,-96.6789773
2016,NE,Douglas,41.2954112,-96.1415672
2016,NE,Dundy,40.1849874,-101.6959427
2016,NE,Fillmore,40.5292953,-97.599729
2016,NE,Franklin,40.1715234,-98.9687585
2016,NE,Frontier,40.5520473,-100.4230266
2016,NE,Furnas,40.1791278,-99.8981009
2016,NE,Gage,40.2469449,-96.7021336
2016,NE,Garden,41.6440533,-102.3392806
2016,NE,Garfield,41.895743,-99.0097985
2016,NE,Gosper,40.5145053,-99.8185651
2016,NE,Grant,41.9231444,-101.7354061
2016,NE,Greeley,41.5595746,-98.5300914
2016,NE,Hall,40.8627335,-98.5122907
2016,NE,Hamilton,40.8569853,-98.0470062
2016,NE,Harlan,40.1617382,-99.4349368
2016,NE,Hayes,40.5335592,-101.0605971
2016,NE,Hitchcock,40.1659573,-101.0387468
2016,NE,Holt,42.4304452,-98.7540783
2016,NE,Hooker,41.9078471,-101.1572302
2016,NE,Howard,41.227424,-98.5174349
2016,NE,Jefferson,40.185543,-97.1786805
2016,NE,Johnson,40.3915587,-96.2796179
2016,NE,Kearney,40.699478,-99.081858
2016,NE,Keith,41.1973065,-101.6862537
2016,NE,Keya Paha,42.8866032,-99.6995454
2016,NE,Kimball,41.1881305,-103.6997645
2016,NE,Knox,42.6206698,-97.8901445
2016,NE,Lancaster,40.7768326,-96.7111039
2016,NE,Lincoln,40.8,-96.667821
2016,NE,Logan,41.5590057,-100.5030548
2016,NE,Loup,41.9075834,-99.4608177
2016,NE,McPherson,41.5621689,-101.082432
2016,NE,Madison,41.9064942,-97.5961512
2016,NE,Merrick,41.1650536,-98.0531937
2016,NE,Morrill,41.683432,-103.0100258
2016,NE,Nance,41.3947359,-98.002421
2016,NE,Nemaha,40.3837713,-95.8518344
2016,NE,Nuckolls,40.1621285,-98.047997
2016,NE,Otoe,40.6566851,-96.1444582
2016,NE,Pawnee,40.1223248,-96.2629022
2016,NE,Perkins,40.8501242,-101.6522162
2016,NE,Phelps,40.5078647,-99.425665
2016,NE,Pierce,42.2591262,-97.6036812
2016,NE,Platte,41.5760383,-97.51149
2016,NE,Polk,41.1893645,-97.570244
2016,NE,Red Willow,40.1686191,-100.4550901
2016,NE,Richardson,40.1194651,-95.7607517
2016,NE,Rock,42.4152603,-99.456071
2016,NE,Saline,40.5079612,-97.175536
2016,NE,Sarpy,41.1193462,-96.093081
2016,NE,Saunders,41.2260007,-96.6520834
2016,NE,Scotts Bluff,41.8555787,-103.7088303
2016,NE,Seward,40.8695533,-97.1706676
2016,NE,Sheridan,42.4542885,-102.4089285
2016,NE,Sherman,41.2206877,-98.99384
2016,NE,Sioux,42.5055628,-103.7745337
2016,NE,Stanton,41.9220687,-97.2141158
2016,NE,Thayer,40.1682672,-97.6348188
2016,NE,Thomas,41.9116541,-100.5558924
2016,NE,Thurston,42.1837827,-96.5394986
2016,NE,Valley,41.5595723,-98.9805484
2016,NE,Washington,41.5407766,-96.246548
2016,NE,Wayne,42.2303215,-97.0178768
2016,NE,Webster,40.1677552,-98.5260923
2016,NE,Wheeler,41.8998069,-98.5309487
2016,NE,York,40.8680593,-97.5919166
2016,NV,Churchill,39.6136309,-118.4191948
2016,NV,Clark,36.3467726,-115.0907378
2016,NV,Douglas,38.9072611,-119.6201824
2016,NV,Elko,40.8324188,-115.7630982
2016,NV,Esmeralda,37.8066689,-117.6419239
2016,NV,Eureka,39.9497613,-116.2884505
2016,NV,Humboldt,41.429394,-118.2024818
2016,NV,Lander,39.9059878,-116.9843374
2016,NV,Lincoln,37.5449476,-114.8764448
2016,NV,Lyon,38.9887898,-119.1822042
2016,NV,Mineral,38.4815162,-118.498262
2016,NV,Nye,38.3544843,-116.4069616
2016,NV,Pershing,40.3913722,-118.4778996
2016,NV,Storey,39.4572167,-119.5157991
2016,NV,Washoe,40.5849048,-119.6131606
2016,NV,White Pine,39.5298185,-114.8899563
2016,NV,Carson City,39.1648969,-119.7665825
2016,NH,Belknap,43.5218848,-71.4530581
2016,NH,Carroll,44.29879,-71.540909
2016,NH,Cheshire,42.9525022,-72.2834412
2016,NH,Coos,44.698627,-71.3768039
2016,NH,Grafton,43.562979,-71.946716
2016,NH,Hillsborough,43.1376915,-71.940374786224
2016,NH,Merrimack,42.8650864,-71.4934004
2016,NH,Rockingham,42.9966675,-71.1003143
2016,NH,Strafford,43.327176,-71.18454
2016,NH,Sullivan,43.0131353,-72.2209182
2016,NJ,Atlantic,39.5143268,-74.6632883
2016,NJ,Bergen,40.9678345,-74.0563254
2016,NJ,Burlington,39.9325409,-74.7226665
2016,NJ,Camden,39.9448402,-75.1198911
2016,NJ,Cape May,39.1765386,-74.8012119
2016,NJ,Cumberland,39.3183341,-75.1623239
2016,NJ,Essex,40.7913922,-74.2479444
2016,NJ,Gloucester,39.7267303,-75.1535378
2016,NJ,Hudson,40.7381635,-74.0550731
2016,NJ,Hunterdon,40.5770634,-74.9261552
2016,NJ,Mercer,40.2807177,-74.7033717
2016,NJ,Middlesex,40.4279708,-74.3963102
2016,NJ,Monmouth,40.2932319,-74.1671114
2016,NJ,Morris,40.8679538,-74.5601181
2016,NJ,Ocean,39.977818,-74.3319287
2016,NJ,Passaic,41.0461864,-74.3177933
2016,NJ,Salem,39.5980987,-75.3488201
2016,NJ,Somerset,40.5675084,-74.6189556
2016,NJ,Sussex,41.133372,-74.6930393
2016,NJ,Union,40.6652251,-74.3045277
2016,NJ,Warren,40.8602222,-74.9720493
2016,NM,Bernalillo,35.0349239,-106.6870693
2016,NM,Catron,33.9026943,-108.3800825
2016,NM,Chaves,33.2993426,-104.5133481
2016,NM,Cibola,34.8722771,-107.9398474
2016,NM,Colfax,36.5571762,-104.6118941
2016,NM,Curry,34.5220133,-103.3099435
2016,NM,De Baca,34.2989792,-104.4155765
2016,NM,Dona Ana,32.32817,-106.8494235
2016,NM,Eddy,32.4003136,-104.3452596
2016,NM,Grant,32.7548776,-108.3634144
2016,NM,Guadalupe,34.8980615,-104.8282135
2016,NM,Harding,35.8996832,-103.7873945
2016,NM,Hidalgo,31.801493,-108.7598468
2016,NM,Lea,32.7448727,-103.3828242
2016,NM,Lincoln,33.7525727,-105.4158806
2016,NM,Los Alamos,35.8814009,-106.2989958
2016,NM,Luna,32.1345966,-107.7682754
2016,NM,McKinley,35.6438394,-108.1515609
2016,NM,Mora,35.972232,-104.9132218
2016,NM,Otero,32.5059533,-105.8063662
2016,NM,Quay,35.1439219,-103.4183431
2016,NM,Rio Arriba,36.5488273,-106.8155233
2016,NM,Roosevelt,33.972525,-103.4933903
2016,NM,Sandoval,35.5910806,-106.8472167
2016,NM,San Juan,36.4755752,-108.3046555
2016,NM,San Miguel,35.470043,-104.7946178
2016,NM,Santa Fe,35.6869996,-105.9377997
2016,NM,Sierra,33.1165937,-107.2569421
2016,NM,Socorro,34.0572858,-106.8930799
2016,NM,Taos,36.4925795,-105.6812782
2016,NM,Torrance,34.6356278,-105.9059678
2016,NM,Union,36.3985203,-103.4132264
2016,NM,Valencia,34.7325886,-106.8503919
2016,MO,Kansas City,39.100105,-94.5781416
2016,NY,Albany,42.6511674,-73.754968
2016,NY,Allegany,42.2446061,-78.0419281
2016,NY,Bronx,40.85048545,-73.8404035580209
2016,NY,Broome,42.1455623,-75.8404114
2016,NY,Cattaraugus,42.2234823,-78.6477096
2016,NY,Cayuga,42.8093409,-76.5700777
2016,NY,Chautauqua,42.2894671,-79.421728
2016,NY,Chemung,42.1384667,-76.7725493
2016,NY,Chenango,42.4784565,-75.6130279
2016,NY,Clinton,44.7278943,-73.6686982
2016,NY,Columbia,42.2415027,-73.6723456
2016,NY,Cortland,42.5842136,-76.0704906
2016,NY,Delaware,42.194917,-75.0016302
2016,NY,Dutchess,41.7194303,-73.7516205
2016,NY,Erie,42.7164263,-78.7620327
2016,NY,Essex,44.0638879,-73.7542043
2016,NY,Franklin,44.5599139,-74.3273735
2016,NY,Fulton,43.1061507,-74.4461771
2016,NY,Genesee,43.0102726,-78.1780196
2016,NY,Greene,42.2628769,-74.0878112
2016,NY,Hamilton,43.6307863,-74.4659275
2016,NY,Herkimer,43.4911326,-74.9481252
2016,NY,Jefferson,44.059311,-75.9995742
2016,NY,Kings,43.1509069,-73.8542895
2016,NY,Lewis,43.7344277,-75.440289
2016,NY,Livingston,42.7360902,-77.7781416
2016,NY,Madison,42.875882,-75.6802581
2016,NY,Monroe,43.150094,-77.6810141
2016,NY,Montgomery,42.8941269,-74.4099745
2016,NY,Nassau,40.7412643,-73.5877699
2016,NY,New York,40.7127281,-74.0060152
2016,NY,Niagara,43.2042439,-78.7676017
2016,NY,Oneida,43.2144051,-75.4039155
2016,NY,Onondaga,43.015598,-76.2257127
2016,NY,Ontario,42.8580624,-77.295025
2016,NY,Orange,41.3873306,-74.2507287
2016,NY,Orleans,43.2244513,-78.2272835
2016,NY,Oswego,43.4112973,-76.1279841
2016,NY,Otsego,42.5984272,-75.0142701
2016,NY,Putnam,41.426996,-73.760156
2016,NY,Queens,40.6524927,-73.7914214158161
2016,NY,Rensselaer,42.7091389,-73.5107732
2016,NY,Richmond,40.5739937,-74.1304203
2016,NY,Rockland,41.1519319,-74.0357266
2016,NY,St. Lawrence,44.4973591,-75.0657043
2016,NY,Saratoga,43.0833231,-73.8712155
2016,NY,Schenectady,42.8419353,-74.0434401
2016,NY,Schoharie,42.5757217,-74.4390277
2016,NY,Schuyler,42.3899705,-76.8744093
2016,NY,Seneca,42.7831619,-76.8386051
2016,NY,Steuben,42.2359045,-77.3750862
2016,NY,Suffolk,40.8832318,-72.8578027
2016,NY,Sullivan,41.7156311,-74.7804323
2016,NY,Tioga,42.1333395,-76.3309339
2016,NY,Tompkins,40.6401454,-73.9608797
2016,NY,Ulster,41.8689317,-74.2618518
2016,NY,Warren,43.5018687,-73.8164637
2016,NY,Washington,43.2294536,-73.4471343
2016,NY,Wayne,43.1500557,-77.0377603
2016,NY,Westchester,41.1763139,-73.7907554
2016,NY,Wyoming,42.7039813,-78.2415228
2016,NY,Yates,42.6444444,-77.112177
2016,NC,Alamance,36.0351361,-79.4858549
2016,NC,Alexander,35.924738,-81.1716315
2016,NC,Alleghany,36.5029951,-81.1340843
2016,NC,Anson,34.9705848,-80.0958187
2016,NC,Ashe,36.4393554,-81.5076569
2016,NC,Avery,36.0771285,-81.9230523
2016,NC,Beaufort,34.7180601,-76.6591587
2016,NC,Bertie,36.0608505,-76.9747965
2016,NC,Bladen,34.627971,-78.5627714
2016,NC,Brunswick,34.0718195,-78.1914215
2016,NC,Buncombe,35.6292222,-82.5255603
2016,NC,Burke,35.7270403,-81.6632108
2016,NC,Cabarrus,35.4045503,-80.564371
2016,NC,Caldwell,35.9417876,-81.5262567
2016,NC,Camden,36.3106247,-76.1150606
2016,NC,Carteret,34.8496625,-76.5931208
2016,NC,Caswell,36.4035101,-79.3357315
2016,NC,Catawba,35.6740563,-81.2107215
2016,NC,Chatham,35.7151316,-79.2533035
2016,NC,Cherokee,35.1184149,-84.0886181
2016,NC,Chowan,36.0768949,-76.629641
2016,NC,Clay,35.0572652,-83.7324509
2016,NC,Cleveland,35.330702,-81.5507523
2016,NC,Columbus,34.2814497,-78.666593
2016,NC,Craven,35.0808574,-77.0439978
2016,NC,Cumberland,35.0461723,-78.8394255
2016,NC,Currituck,35.1654216,-80.8706278
2016,NC,Dare,35.6333866,-75.6869011
2016,NC,Davidson,35.7902384,-80.2115053
2016,NC,Davie,35.9375154,-80.5464948
2016,NC,Duplin,34.9464988,-77.9320171
2016,NC,Durham,36.0181316,-78.8751582
2016,NC,Edgecombe,35.9213841,-77.5971695
2016,NC,Forsyth,36.1476399,-80.2415712
2016,NC,Franklin,36.1028596,-78.2787229
2016,NC,Gaston,35.2849659,-81.179014
2016,NC,Gates,36.4412509,-76.6944133
2016,NC,Graham,36.0690258,-79.4005756
2016,NC,Granville,36.3210127,-78.6593963
2016,NC,Greene,35.481724,-77.6728536
2016,NC,Guilford,36.0875688,-79.7888515
2016,NC,Halifax,36.2494056,-77.66834
2016,NC,Harnett,35.388093,-78.8624963
2016,NC,Haywood,35.5456202,-82.9907823
2016,NC,Henderson,36.3295905,-78.3991638
2016,NC,Hertford,36.3560545,-77.0115135
2016,NC,Hoke,35.0271856,-79.2432785
2016,NC,Hyde,35.3935017,-76.1253302
2016,NC,Iredell,35.8101636,-80.8805593
2016,NC,Jackson,35.2962391,-83.1388055
2016,NC,Johnston,35.5285816,-78.3768021
2016,NC,Jones,35.0306301,-77.3231405
2016,NC,Lee,35.4691746,-79.1547643
2016,NC,Lenoir,35.9140196,-81.5389849
2016,NC,Lincoln,35.4866424,-81.2062724
2016,NC,McDowell,35.6608869,-82.0482171
2016,NC,Macon,35.1436639,-83.3977297
2016,NC,Madison,35.8482034,-82.6931063
2016,NC,Martin,35.8134443,-77.0948861
2016,NC,Mecklenburg,35.2356385,-80.8139485
2016,NC,Mitchell,36.0001181,-82.1349028
2016,NC,Montgomery,35.3299572,-79.8979019
2016,NC,Moore,35.3054614,-79.4761236
2016,NC,Nash,35.992983,-77.9755309
2016,NC,New Hanover,34.2751052,-77.8818627
2016,NC,Northampton,36.4168078,-77.3642227
2016,NC,Onslow,34.7952348,-77.4215828
2016,NC,Orange,36.0605095,-79.1172679
2016,NC,Pamlico,35.1238031,-76.7970224
2016,NC,Pasquotank,36.2280793,-76.2149621
2016,NC,Pender,34.5294394,-77.8959525
2016,NC,Perquimans,36.1739896,-76.4254832
2016,NC,Person,36.3967816,-78.9882995
2016,NC,Pitt,35.611481,-77.3707461
2016,NC,Polk,35.2779217,-82.176176
2016,NC,Randolph,35.7142874,-79.7975166
2016,NC,Richmond,35.0288383,-79.7333261
2016,NC,Robeson,34.6485079,-79.0954942
2016,NC,Rockingham,36.3926798,-79.744144
2016,NC,Rowan,35.6315952,-80.5171754
2016,NC,Rutherford,35.3994626,-81.9023191
2016,NC,Sampson,35.0078434,-78.3609662
2016,NC,Scotland,34.8628902,-79.4903372
2016,NC,Stanly,35.3235477,-80.2391366
2016,NC,Stokes,36.4120995,-80.2288089
2016,NC,Surry,36.4135582,-80.7013751
2016,NC,Swain,35.45819,-83.466275
2016,NC,Transylvania,35.1982216,-82.7724889
2016,NC,Tyrrell,35.8217079,-76.2126146
2016,NC,Union,34.9795158,-80.5128209
2016,NC,Vance,36.3747423,-78.4140945
2016,NC,Wake,35.7979355,-78.6118311
2016,NC,Warren,36.3901694,-78.1052123
2016,NC,Washington,35.8253994,-76.5726303
2016,NC,Watauga,36.2228105,-81.6863808
2016,NC,Wayne,35.3546293,-78.0149444
2016,NC,Wilkes,36.1998247,-81.1341351
2016,NC,Wilson,35.7212689,-77.9155395
2016,NC,Yadkin,36.1497114,-80.67623
2016,NC,Yancey,35.8875402,-82.3035673
2016,ND,Adams,46.073286,-102.5315028
2016,ND,Barnes,46.9310489,-98.0678849
2016,ND,Benson,48.0191362,-99.403103
2016,ND,Billings,47.0456305,-103.3943708
2016,ND,Bottineau,48.82723,-100.445698
2016,ND,Bowman,46.1010498,-103.5086625
2016,ND,Burke,48.7882181,-102.5295867
2016,ND,Burleigh,46.9498874,-100.5127667
2016,ND,Cass,46.9241972,-97.220631
2016,ND,Cavalier,48.7938814,-97.6223098
2016,ND,Dickey,46.0952757,-98.5322728
2016,ND,Divide,48.8189219,-103.5180387
2016,ND,Dunn,47.30612,-102.6112348
2016,ND,Eddy,47.7113958,-98.9087265
2016,ND,Emmons,46.2575403,-100.2574942
2016,ND,Foster,47.4642277,-98.8815333
2016,ND,Golden Valley,46.9317944,-103.8668414
2016,ND,Grand Forks,47.9078244,-97.0592028
2016,ND,Grant,46.3441037,-101.6261837
2016,ND,Griggs,47.4473179,-98.2616158
2016,ND,Hettinger,46.0013946,-102.6368239
2016,ND,Kidder,46.9636218,-99.7952675
2016,ND,LaMoure,46.4473745,-98.534574
2016,ND,Logan,46.4650338,-99.4501721
2016,ND,McHenry,48.1907427,-100.65378
2016,ND,McIntosh,46.1097938,-99.4243411
2016,ND,McKenzie,47.7702536,-103.4734684
2016,ND,McLean,47.6002156,-101.1719782
2016,ND,Mercer,47.3347663,-101.8650031
2016,ND,Morton,46.7244733,-101.1644543
2016,ND,Mountrail,48.230321,-102.3603325
2016,ND,Nelson,47.8852229,-98.1774434
2016,ND,Oliver,47.1077709,-101.3524486
2016,ND,Pembina,48.7530787,-97.5532833
2016,ND,Pierce,48.1957108,-100.0625504
2016,ND,Ramsey,48.2426199,-98.7062419
2016,ND,Ransom,46.4519081,-97.6903091
2016,ND,Renville,48.6579169,-101.7009103
2016,ND,Richland,46.2247251,-96.9470748
2016,ND,Rolette,48.7419695,-99.8380336
2016,ND,Sargent,46.1101793,-97.6291809
2016,ND,Sheridan,47.5321614,-100.367913
2016,ND,Sioux,46.0654725,-100.978187
2016,ND,Slope,46.4464651,-103.4507022
2016,ND,Stark,46.7870161,-102.7338349
2016,ND,Steele,47.4413054,-97.7450372
2016,ND,Stutsman,46.9596318,-98.9742609
2016,ND,Towner,48.6481504,-99.2322581
2016,ND,Traill,47.4438504,-97.1797001
2016,ND,Walsh,48.3693784,-97.7469943
2016,ND,Ward,48.2488309,-101.6242607
2016,ND,Wells,47.5664224,-99.6508819
2016,ND,Williams,48.3629861,-103.4958386
2016,OH,Adams,38.8398935,-83.5051704
2016,OH,Allen,40.8077797,-84.0572225
2016,OH,Ashland,40.7887367,-82.2360391
2016,OH,Ashtabula,41.7167229,-80.74947
2016,OH,Athens,39.3289242,-82.1012479
2016,OH,Auglaize,40.5942186,-84.2641951
2016,OH,Belmont,40.0057737,-81.0097516
2016,OH,Brown,38.9092542,-83.8836555
2016,OH,Butler,39.4233043,-84.5936897
2016,OH,Carroll,40.5250362,-81.0927234
2016,OH,Champaign,40.1726987,-83.7701999
2016,OH,Clark,39.9229676,-83.7905959
2016,OH,Clermont,39.0678155,-84.1566341
2016,OH,Clinton,39.4259873,-83.8445792
2016,OH,Columbiana,40.7787016,-80.7648602
2016,OH,Coshocton,40.2905684,-81.9271441
2016,OH,Crawford,40.8705909,-82.9065596
2016,OH,Cuyahoga,41.4301347,-81.6905558
2016,OH,Darke,40.168765,-84.631372
2016,OH,Defiance,41.2844933,-84.3557802
2016,OH,Delaware,40.2986724,-83.067965
2016,OH,Erie,41.3506462,-82.640448
2016,OH,Fairfield,39.7886111,-82.6418883
2016,OH,Fayette,39.5839889,-83.4401122
2016,OH,Franklin,39.5589474,-84.3041074
2016,OH,Fulton,41.6045817,-84.1141048
2016,OH,Gallia,38.7952465,-82.3556216
2016,OH,Geauga,41.4768249,-81.1850459
2016,OH,Greene,39.6908207,-83.9175037
2016,OH,Guernsey,40.0802222,-81.4859433
2016,OH,Hamilton,39.3995067,-84.5613428
2016,OH,Hancock,40.9939911,-83.6587588
2016,OH,Hardin,40.6880457,-83.6835337
2016,OH,Harrison,40.2694328,-81.1289112
2016,OH,Henry,41.2818109,-84.0581255
2016,OH,Highland,39.1802516,-83.6304344
2016,OH,Hocking,39.4644491,-82.5469722
2016,OH,Holmes,40.5840117,-81.9304045
2016,OH,Huron,41.1305303,-82.591828
2016,OH,Jackson,39.0520169,-82.6365537
2016,OH,Jefferson,40.3792938,-80.7847619
2016,OH,Knox,40.4467896,-82.4056302
2016,OH,Lake,41.7064789,-81.2380032
2016,OH,Lawrence,38.6065461,-82.5702511
2016,OH,Licking,40.1318041,-82.4627856
2016,OH,Logan,40.4430521,-83.7414465
2016,OH,Lorain,41.4673238,-82.1781904
2016,OH,Lucas,41.6508446,-83.621321
2016,OH,Madison,39.8868227,-83.3937233
2016,OH,Mahoning,40.9830133,-80.7826416
2016,OH,Marion,40.5885271,-83.1895249
2016,OH,Medina,41.1000764,-81.9382517
2016,OH,Meigs,39.1099292,-82.0420769
2016,OH,Mercer,40.4367866,-84.6109122
2016,OH,Miami,40.0580258,-84.2236524
2016,OH,Monroe,39.7157533,-81.1078783
2016,OH,Montgomery,39.2282432,-84.3539662
2016,OH,Morgan,39.5943953,-81.877978
2016,OH,Morrow,40.4574358,-82.7771661
2016,OH,Muskingum,40.0064162,-81.9984697
2016,OH,Noble,39.7517148,-81.4957347
2016,OH,Ottawa,41.5421375,-83.213342
2016,OH,Paulding,41.1628401,-84.5902954
2016,OH,Perry,39.6370289,-82.2044367
2016,OH,Pickaway,39.6725327,-83.0373284
2016,OH,Pike,39.1056387,-83.0611404
2016,OH,Portage,41.1496775,-81.2082
2016,OH,Preble,39.8125011,-84.6411162
2016,OH,Putnam,41.0677672,-84.1686932
2016,OH,Richland,40.776322,-82.5302254
2016,OH,Ross,39.3455507,-83.077359
2016,OH,Sandusky,41.4489397,-82.7079605
2016,OH,Scioto,38.823448,-83.017141
2016,OH,Seneca,41.1343702,-83.1194199
2016,OH,Shelby,40.3491604,-84.1593008
2016,OH,Stark,40.7214654,-81.4399734
2016,OH,Summit,41.1457902,-81.5333603
2016,OH,Trumbull,41.3068487,-80.7661017
2016,OH,Tuscarawas,40.3759469,-81.464888
2016,OH,Union,40.3255937,-83.3676859
2016,OH,Van Wert,40.8014651,-84.600988
2016,OH,Vinton,39.2744355,-82.4740302
2016,OH,Warren,41.237557,-80.818417
2016,OH,Washington,39.4782641,-81.5488945
2016,OH,Wayne,40.8615819,-81.9034617
2016,OH,Williams,41.5018224,-84.5923785
2016,OH,Wood,41.2776661,-83.6643025
2016,OH,Wyandot,40.865471,-83.2810539
2016,OK,Adair,35.8783136,-94.6567402
2016,OK,Alfalfa,36.7201825,-98.3087911
2016,OK,Atoka,34.3284948,-96.017838
2016,OK,Beaver,36.7621116,-100.4904955
2016,OK,Beckham,35.2496723,-99.6946079
2016,OK,Blaine,35.8970899,-98.4225961
2016,OK,Bryan,33.95386,-96.3154827
2016,OK,Caddo,35.131317,-98.3797949
2016,OK,Canadian,35.5438102,-98.0031532
2016,OK,Carter,34.2330314,-97.2789479
2016,OK,Cherokee,35.9158661,-94.9950063
2016,OK,Choctaw,34.0246234,-95.52055
2016,OK,Cimarron,36.7475509,-102.5402407
2016,OK,Cleveland,35.2301869,-97.3109151
2016,OK,Coal,34.5661009,-96.2944665
2016,OK,Comanche,34.6557505,-98.4485103
2016,OK,Cotton,34.2907874,-98.3750699
2016,OK,Craig,36.7594037,-95.2053495
2016,OK,Creek,35.8830723,-96.3835476
2016,OK,Custer,35.6286063,-99.0092034
2016,OK,Delaware,36.4118421,-94.8069453
2016,OK,Dewey,35.9795036,-98.9816579
2016,OK,Ellis,36.2468449,-99.7883601
2016,OK,Garfield,36.3735486,-97.7845975
2016,OK,Garvin,34.7258964,-97.3522579
2016,OK,Grady,35.0507761,-97.8849251
2016,OK,Grant,36.7888817,-97.7824914
2016,OK,Greer,34.9326334,-99.5435856
2016,OK,Harmon,34.7486602,-99.8358205
2016,OK,Harper,36.7804883,-99.6710032
2016,OK,Haskell,35.2084387,-95.1115771
2016,OK,Hughes,35.0458435,-96.2749675
2016,OK,Jackson,34.5976018,-99.4370196
2016,OK,Jefferson,34.1234448,-97.8379641
2016,OK,Johnston,34.31888,-96.6752298
2016,OK,Kay,36.8384462,-97.1571626
2016,OK,Kingfisher,35.9471931,-97.9641244
2016,OK,Kiowa,34.9425062,-99.019906
2016,OK,Latimer,34.8759191,-95.2482652
2016,OK,Le Flore,34.8782244,-94.6852153
2016,OK,Lincoln,35.6961464,-96.8898429
2016,OK,Logan,35.8879493,-97.4621935
2016,OK,Love,33.9852998,-97.2526992
2016,OK,McClain,34.9756991,-97.481167
2016,OK,McCurtain,34.1450295,-94.7802324
2016,OK,McIntosh,35.3630353,-95.6680554
2016,OK,Major,36.2860458,-98.4995602
2016,OK,Marshall,34.0497884,-96.7808049
2016,OK,Mayes,36.3047676,-95.2355722
2016,OK,Murray,34.4935341,-97.0475803
2016,OK,Muskogee,35.7478769,-95.3696909
2016,OK,Noble,36.4129621,-97.2681939
2016,OK,Nowata,36.700645,-95.6380341
2016,OK,Okfuskee,35.4655548,-96.3102089
2016,OK,Oklahoma,35.5533328,-97.4367741
2016,OK,Okmulgee,35.6677078,-95.9690122
2016,OK,Osage,36.6189659,-96.401338
2016,OK,Ottawa,36.8223646,-94.8186091
2016,OK,Pawnee,36.3151645,-96.7200995
2016,OK,Payne,36.0721527,-96.9456522
2016,OK,Pittsburg,34.927554,-95.7639966
2016,OK,Pontotoc,34.707331,-96.6814853
2016,OK,Pottawatomie,35.1783637,-96.969909
2016,OK,Pushmataha,34.4098497,-95.4033122
2016,OK,Roger Mills,35.6596782,-99.6898104
2016,OK,Rogers,36.3781607,-95.6190889
2016,OK,Seminole,35.1705939,-96.6263487
2016,OK,Sequoyah,35.5035863,-94.7360577
2016,OK,Stephens,34.4858287,-97.8636045
2016,OK,Texas,36.7390314,-101.4953594
2016,OK,Tillman,34.3835721,-98.9354765
2016,OK,Tulsa,36.1556805,-95.9929113
2016,OK,Wagoner,35.9542216,-95.5636238
2016,OK,Washington,36.6930592,-95.9078261
2016,OK,Washita,35.2917033,-98.9966972
2016,OK,Woods,36.7915843,-98.8313546
2016,OK,Woodward,36.374499,-99.2455382
2016,OR,Baker,44.7259637,-117.6204818
2016,OR,Benton,44.494937,-123.4065679
2016,OR,Clackamas,45.1608821,-122.2305038
2016,OR,Clatsop,45.980728,-123.6687499
2016,OR,Columbia,45.9280203,-123.082293
2016,OR,Coos,43.2184144,-124.109621
2016,OR,Crook,44.1460291,-120.3839476
2016,OR,Curry,42.4265426,-124.216879
2016,OR,Deschutes,44.290253,-121.5502265
2016,OR,Douglas,43.1922115,-123.1135963
2016,OR,Gilliam,45.3298742,-120.2202197
2016,OR,Grant,44.464824,-119.0565278
2016,OR,Harney,43.055195,-119.0240263
2016,OR,Hood River,45.7053101,-121.5217927
2016,OR,Jackson,42.398015,-122.7540948
2016,OR,Jefferson,44.6072499,-121.2463145
2016,OR,Josephine,42.3554368,-123.5602707
2016,OR,Klamath,42.6052565,-121.739544
2016,OR,Lake,42.7702847,-120.4528326
2016,OR,Lane,43.9314567,-122.8575849
2016,OR,Lincoln,44.6201742,-123.9276915
2016,OR,Linn,44.4968904,-122.5485977
2016,OR,Malheur,43.1023481,-117.6916892
2016,OR,Marion,44.8964425,-122.7203248
2016,OR,Morrow,45.360901,-119.6052459
2016,OR,Multnomah,45.5093799,-122.4006413
2016,OR,Polk,44.879673,-123.4599594
2016,OR,Sherman,45.3944268,-120.6963746
2016,OR,Tillamook,45.455921,-123.844429
2016,OR,Umatilla,45.6416995,-118.7671122
2016,OR,Union,50.357041,13.7945757
2016,OR,Wallowa,45.5582608,-117.1990173
2016,OR,Wasco,45.0430227,-121.2154207
2016,OR,Washington,45.5601883,-123.0587907
2016,OR,Wheeler,44.6768382,-120.0484375
2016,OR,Yamhill,45.2298399,-123.2180414
2016,PA,Adams,39.8708972,-77.2395963
2016,PA,Allegheny,40.4597204,-79.9760405
2016,PA,Armstrong,40.7876239,-79.4689832
2016,PA,Beaver,40.6916624,-80.3709999
2016,PA,Bedford,40.0271453,-78.5237447
2016,PA,Berks,40.4113762,-75.9433305
2016,PA,Blair,40.4870748,-78.3682329
2016,PA,Bradford,41.7746685,-76.5264613
2016,PA,Bucks,40.3451668,-75.1263909
2016,PA,Butler,40.8610205,-79.8952251
2016,PA,Cambria,40.4843583,-78.718852
2016,PA,Cameron,41.4586993,-78.1931833
2016,PA,Carbon,40.8908468,-75.7212917
2016,PA,Centre,40.9381735,-77.7865722
2016,PA,Chester,39.849557,-75.3557458
2016,PA,Clarion,41.1818771,-79.429169
2016,PA,Clearfield,40.9908706,-78.4457422
2016,PA,Clinton,40.4895121,-80.2945057
2016,PA,Columbia,40.032089,-76.5016402
2016,PA,Crawford,41.6951179,-80.1428967
2016,PA,Cumberland,40.1541581,-77.2803933
2016,PA,Dauphin,40.398036,-76.8115168
2016,PA,Delaware,39.9194117,-75.4001639
2016,PA,Elk,41.437362,-78.626009
2016,PA,Erie,42.1294712,-80.0852695
2016,PA,Fayette,39.921022,-79.6663803
2016,PA,Forest,41.5329762,-79.2640912
2016,PA,Franklin,39.9259345,-77.7485516
2016,PA,Fulton,39.9159664,-78.1299624
2016,PA,Greene,39.8513322,-80.2466384
2016,PA,Huntingdon,40.3446332,-78.0281185
2016,PA,Indiana,40.6214551,-79.1525349
2016,PA,Jefferson,33.5228184,-86.9164513
2016,PA,Juniata,40.5368022,-77.4300565
2016,PA,Lackawanna,41.4406084,-75.6260271
2016,PA,Lancaster,40.08067,-76.2411283
2016,PA,Lawrence,41.001415,-80.350071
2016,PA,Lebanon,40.3429683,-76.4233816
2016,PA,Lehigh,40.6096215,-75.6048728
2016,PA,Luzerne,41.1749635,-75.9695233
2016,PA,Lycoming,41.3472688,-77.0220348
2016,PA,McKean,41.8019737,-78.5769879
2016,PA,Mercer,41.3334542,-80.3014412
2016,PA,Mifflin,40.6099183,-77.6215085
2016,PA,Monroe,41.0400423,-75.3249475
2016,PA,Montgomery,32.3669656,-86.3006485
2016,PA,Montour,41.0289528,-76.6615816
2016,PA,Northampton,40.7451356,-75.3289302
2016,PA,Northumberland,40.8488473,-76.6943741
2016,PA,Perry,10000.0,10000.0
2016,PA,Philadelphia,39.9527237,-75.1635262
2016,PA,Pike,49.1009451,1.9672466
2016,PA,Potter,41.7302743,-77.9022292
2016,PA,Schuylkill,40.6936632,-76.2277971
2016,PA,Snyder,40.7615395,-77.0909536
2016,PA,Somerset,39.9980022,-79.0415528
2016,PA,Sullivan,41.4402556,-76.5117017
2016,PA,Susquehanna,41.8218729,-75.8170767
2016,PA,Tioga,41.7741691,-77.254256
2016,PA,Union,40.9745493,-77.0785945
2016,PA,Venango,41.3996112,-79.7709417
2016,PA,Warren,41.843949,-79.145045
2016,PA,Washington,40.1943798,-80.2541251
2016,PA,Wayne,40.0440149,-75.3878616
2016,PA,Westmoreland,40.2930159,-79.4873204
2016,PA,Wyoming,41.5179097,-76.019111
2016,PA,York,39.9067499,-76.7008946
2016,RI,Bristol,41.6770463,-71.2661597
2016,RI,Kent,41.6722912,-71.602762
2016,RI,Newport,41.4899827,-71.3137707
2016,RI,Providence,41.8239891,-71.4128343
2016,RI,Washington,41.463239,-71.7039673
2016,SC,Abbeville,34.1779495,-82.3792463
2016,SC,Aiken,33.5598586,-81.721952
2016,SC,Allendale,32.9635006,-81.3400056
2016,SC,Anderson,34.5068601,-82.6506264
2016,SC,Bamberg,33.2130154,-81.0166235
2016,SC,Barnwell,33.2448733,-81.3587178
2016,SC,Beaufort,32.4315813,-80.6698286
2016,SC,Berkeley,33.1595951,-79.9070461
2016,SC,Calhoun,33.6567769,-80.7603948
2016,SC,Charleston,32.7876012,-79.9402728
2016,SC,Cherokee,35.0372626,-81.6480755
2016,SC,Chester,34.6859896,-81.1545073
2016,SC,Chesterfield,34.6500578,-80.1417843
2016,SC,Clarendon,33.6653463,-80.2277002
2016,SC,Colleton,32.8620726,-80.677114
2016,SC,Darlington,34.2998762,-79.8761741
2016,SC,Dillon,34.4165391,-79.3713948
2016,SC,Dorchester,33.0756291,-80.3431133
2016,SC,Edgefield,33.7895774,-81.9295582
2016,SC,Fairfield,34.4091797,-81.1131228
2016,SC,Florence,34.1984435,-79.7671658
2016,SC,Georgetown,33.376834,-79.2944965
2016,SC,Greenville,34.851354,-82.3984882
2016,SC,Greenwood,34.1954001,-82.1617883
2016,SC,Hampton,32.7861789,-81.1237271
2016,SC,Horry,33.9204504,-78.9578973
2016,SC,Jasper,32.4048602,-81.0414726
2016,SC,Kershaw,34.3334398,-80.5669895
2016,SC,Lancaster,34.6628067,-80.700546
2016,SC,Laurens,34.4646451,-81.9944042
2016,SC,Lee,34.1619217,-80.2539608
2016,SC,Lexington,33.98390015,-81.2260108261701
2016,SC,McCormick,33.8795325,-82.2797719
2016,SC,Marion,34.178216,-79.4006069
2016,SC,Marlboro,34.5810346,-79.6742033
2016,SC,Newberry,34.2753247,-81.6188633
2016,SC,Oconee,34.7622221,-83.1099645
2016,SC,Orangeburg,33.4918203,-80.8556476
2016,SC,Pickens,34.8834489,-82.7073573
2016,SC,Richland,34.0190006,-80.9176832
2016,SC,Saluda,34.0015232,-81.7720522
2016,SC,Spartanburg,34.9498007,-81.9320157
2016,SC,Sumter,33.9204354,-80.3414693
2016,SC,Union,50.357041,13.7945757
2016,SC,Williamsburg,33.6442699,-79.7442135
2016,SC,York,34.9603293,-81.1655408
2016,SD,Aurora,43.6963371,-98.5722461
2016,SD,Beadle,44.4157764,-98.2751583
2016,SD,Bennett,43.1854085,-101.655263
2016,SD,Bon Homme,43.0067408,-97.8721324
2016,SD,Brookings,44.311461,-96.79844
2016,SD,Brown,45.5832968,-98.3674786
2016,SD,Brule,43.6848301,-99.0538876
2016,SD,Buffalo,44.0646363,-99.1707339
2016,SD,Butte,44.9121731,-103.5267067
2016,SD,Campbell,45.7560544,-100.0441548
2016,SD,Charles Mix,43.2257871,-98.6162758
2016,SD,Clark,44.8684319,-97.7431382
2016,SD,Clay,42.9190617,-96.9712933
2016,SD,Codington,44.9695646,-97.1976513
2016,SD,Corson,45.7135207,-101.1797766
2016,SD,Custer,43.766651,-103.598806
2016,SD,Davison,43.6660467,-98.1383168
2016,SD,Day,45.3658879,-97.6152661
2016,SD,Deuel,44.7554353,-96.671551
2016,SD,Dewey,45.1788983,-100.8592127
2016,SD,Douglas,43.3969325,-98.3406673
2016,SD,Edmunds,45.4163408,-99.2220208
2016,SD,Fall River,43.2264954,-103.5791473
2016,SD,Faulk,45.0743643,-99.1739778
2016,SD,Grant,45.1690114,-96.7057561
2016,SD,Gregory,43.1713788,-99.1674843
2016,SD,Haakon,44.2887741,-101.5756888
2016,SD,Hamlin,44.6754502,-97.2005816
2016,SD,Hand,44.5405047,-99.0053027
2016,SD,Hanson,43.6615541,-97.7945361
2016,SD,Harding,45.5509163,-103.4791412
2016,SD,Hughes,44.4047339,-99.946102
2016,SD,Hutchinson,43.3271413,-97.7396791
2016,SD,Hyde,44.5103405,-99.4936719
2016,SD,Jackson,43.668546,-101.6595883
2016,SD,Jerauld,44.0797601,-98.6182042
2016,SD,Jones,43.9667174,-100.6853793
2016,SD,Kingsbury,44.3631469,-97.4882433
2016,SD,Lake,44.0188394,-97.1267291
2016,SD,Lawrence,44.3501591,-103.8248538
2016,SD,Lincoln,43.2724187,-96.7387762
2016,SD,Lyman,43.9176386,-99.8581638
2016,SD,McCook,43.6719795,-97.37153
2016,SD,McPherson,45.7350535,-99.2473056
2016,SD,Marshall,45.7619018,-97.6300108
2016,SD,Meade,44.5263375,-102.6463435
